$PMTK001,220,3*30
$PMTK001,314,3*36
$PMTK705,AXN_2.31_3339_131$GPRMC,080003.000,A,0121.2929,N,10341.5395,E,0.19,192.51,191015,,,D*64
$GPRMC,080004.000,A,0121.2928,N,10341.5394,E,0.18,196.53,191015,,,D*64
$GPRMC,080005.000,A,0121.2928,N,10341.5394,E,0.17,192.04,191015,,,D*6C
$GPRMC,080006.000,A,0121.2927,N,10341.5394,E,0.17,189.33,191015,,,D*6E
$GPRMC,080007.000,A,0121.2927,N,10341.5394,E,0.16,190.03,191015,,,D*65
$GPRMC,080008.000,A,0121.2926,N,10341.5394,E,0.12,192.10,191015,,,D*6F
$GPRMC,080009.000,A,0121.2926,N,10341.5394,E,0.10,202.46,191015,,,D*65
$GPRMC,080010.000,A,0121.2926,N,10341.5394,E,0.08,223.42,191015,,,D*63
$GPRMC,080011.000,A,0121.2926,N,10341.5394,E,0.08,220.81,191015,,,D*6E
$GPRMC,080012.000,A,0121.2926,N,10341.5393,E,0.08,218.50,191015,,,D*6D
$GPRMC,080013.000,A,0121.2926,N,10341.5393,E,0.09,224.18,191015,,,D*6E
$GPRMC,080014.000,A,0121.2925,N,10341.5393,E,0.07,234.90,191015,,,D*65
$GPRMC,080015.000,A,0121.2925,N,10341.5393,E,0.08,212.47,191015,,,D*65
$GPRMC,080016.000,A,0121.2925,N,10341.5393,E,0.06,211.18,191015,,,D*61
$GPRMC,080017.000,A,0121.2925,N,10341.5393,E,0.06,233.36,191015,,,D*6C
$GPRMC,080018.000,A,0121.2925,N,10341.5393,E,0.05,250.04,191015,,,D*64
$GPRMC,080019.000,A,0121.2925,N,10341.5392,E,0.05,270.81,191015,,,D*6B
$GPRMC,080020.000,A,0121.2925,N,10341.5392,E,0.03,300.57,191015,,,D*6A
$GPRMC,080021.000,A,0121.2925,N,10341.5392,E,0.05,327.67,191015,,,D*6B
$GPRMC,080022.000,A,0121.2925,N,10341.5392,E,0.05,316.27,191015,,,D*6E
$GPRMC,080023.000,A,0121.2925,N,10341.5392,E,0.06,298.21,191015,,,D*6D
$GPRMC,080024.000,A,0121.2925,N,10341.5392,E,0.05,282.98,191015,,,D*60
$GPRMC,080025.000,A,0121.2925,N,10341.5392,E,0.06,277.73,191015,,,D*6D
$GPRMC,080026.000,A,0121.2925,N,10341.5392,E,0.07,290.19,191015,,,D*6A
$GPRMC,080027.000,A,0121.2925,N,10341.5391,E,0.04,248.51,191015,,,D*62
$GPRMC,080028.000,A,0121.2925,N,10341.5391,E,0.05,261.10,191015,,,D*62
$GPRMC,080029.000,A,0121.2925,N,10341.5391,E,0.04,274.39,191015,,,D*6D
$GPRMC,080030.000,A,0121.2925,N,10341.5391,E,0.04,262.57,191015,,,D*6A
$GPRMC,080031.000,A,0121.2925,N,10341.5391,E,0.04,209.22,191015,,,D*64
$GPRMC,080032.000,A,0121.2925,N,10341.5391,E,0.03,175.03,191015,,,D*6B
$GPRMC,080033.000,A,0121.2925,N,10341.5391,E,0.05,164.35,191015,,,D*69
$GPRMC,080034.000,A,0121.2925,N,10341.5391,E,0.06,193.40,191015,,,D*67
$GPRMC,080035.000,A,0121.2925,N,10341.5391,E,0.08,199.47,191015,,,D*65
$GPRMC,080036.000,A,0121.2924,N,10341.5391,E,0.09,209.14,191015,,,D*6A
$GPRMC,080037.000,A,0121.2924,N,10341.5391,E,0.09,203.49,191015,,,D*69
$GPRMC,080038.000,A,0121.2924,N,10341.5391,E,0.11,203.18,191015,,,D*6B
$GPRMC,080039.000,A,0121.2924,N,10341.5390,E,0.10,217.72,191015,,,D*63
$GPRMC,080040.000,A,0121.2924,N,10341.5390,E,0.11,218.58,191015,,,D*6B
$GPRMC,080041.000,A,0121.2923,N,10341.5390,E,0.11,219.22,191015,,,D*61
$GPRMC,080042.000,A,0121.2923,N,10341.5390,E,0.10,220.16,191015,,,D*6E
$GPRMC,080043.000,A,0121.2923,N,10341.5390,E,0.09,228.21,191015,,,D*6B
$GPRMC,080044.000,A,0121.2923,N,10341.5389,E,0.10,235.95,191015,,,D*6F
$GPRMC,080045.000,A,0121.2923,N,10341.5389,E,0.10,231.50,191015,,,D*63
$GPRMC,080046.000,A,0121.2922,N,10341.5389,E,0.13,212.28,191015,,,D*6C
$GPRMC,080047.000,A,0121.2922,N,10341.5389,E,0.13,220.67,191015,,,D*67
$GPRMC,080048.000,A,0121.2922,N,10341.5389,E,0.13,211.26,191015,,,D*6F
$GPRMC,080049.000,A,0121.2922,N,10341.5388,E,0.13,210.93,191015,,,D*60
$GPRMC,080050.000,A,0121.2921,N,10341.5388,E,0.13,205.97,191015,,,D*6B
$GPRMC,080051.000,A,0121.2921,N,10341.5388,E,0.14,203.31,191015,,,D*67
$GPRMC,080052.000,A,0121.2920,N,10341.5388,E,0.14,190.39,191015,,,D*64
$GPRMC,080053.000,A,0121.2920,N,10341.5388,E,0.19,190.27,191015,,,D*67
$GPRMC,080054.000,A,0121.2919,N,10341.5388,E,0.21,184.36,191015,,,D*64
$GPRMC,080055.000,A,0121.2919,N,10341.5388,E,0.18,190.95,191015,,,D*63
$GPRMC,080056.000,A,0121.2918,N,10341.5388,E,0.17,194.82,191015,,,D*6C
$GPRMC,080057.000,A,0121.2918,N,10341.5388,E,0.16,191.20,191015,,,D*61
$GPRMC,080058.000,A,0121.2917,N,10341.5388,E,0.19,184.26,191015,,,D*6C
$GPRMC,080059.000,A,0121.2916,N,10341.5388,E,0.20,184.72,191015,,,D*67
$GPRMC,080100.000,A,0121.2916,N,10341.5388,E,0.18,180.84,191015,,,D*6C
$GPRMC,080101.000,A,0121.2915,N,10341.5388,E,0.20,175.06,191015,,,D*65
$GPRMC,080102.000,A,0121.2915,N,10341.5388,E,0.18,176.10,191015,,,D*69
$GPRMC,080103.000,A,0121.2914,N,10341.5388,E,0.19,173.16,191015,,,D*6B
$GPRMC,080104.000,A,0121.2914,N,10341.5388,E,0.17,177.38,191015,,,D*6A
$GPRMC,080105.000,A,0121.2913,N,10341.5388,E,0.15,176.27,191015,,,D*61
$GPRMC,080106.000,A,0121.2913,N,10341.5388,E,0.15,171.00,191015,,,D*60
$GPRMC,080107.000,A,0121.2912,N,10341.5388,E,0.13,176.71,191015,,,D*67
$GPRMC,080108.000,A,0121.2912,N,10341.5388,E,0.13,192.92,191015,,,D*6F
$GPRMC,080109.000,A,0121.2912,N,10341.5388,E,0.11,193.87,191015,,,D*69
$GPRMC,080110.000,A,0121.2911,N,10341.5388,E,0.11,182.87,191015,,,D*62
$GPRMC,080111.000,A,0121.2911,N,10341.5388,E,0.10,190.11,191015,,,D*6E
$GPRMC,080112.000,A,0121.2911,N,10341.5388,E,0.12,187.41,191015,,,D*6C
$GPRMC,080113.000,A,0121.2910,N,10341.5388,E,0.13,205.85,191015,,,D*6C
$GPRMC,080114.000,A,0121.2910,N,10341.5388,E,0.13,205.88,191015,,,D*66
$GPRMC,080115.000,A,0121.2910,N,10341.5387,E,0.11,206.93,191015,,,D*63
$GPRMC,080116.000,A,0121.2909,N,10341.5387,E,0.14,207.58,191015,,,D*6B
$GPRMC,080117.000,A,0121.2909,N,10341.5387,E,0.13,209.31,191015,,,D*6C
$GPRMC,080118.000,A,0121.2909,N,10341.5387,E,0.15,209.75,191015,,,D*65
$GPRMC,080119.000,A,0121.2908,N,10341.5387,E,0.17,204.53,191015,,,D*6E
$GPRMC,080120.000,A,0121.2908,N,10341.5386,E,0.17,204.82,191015,,,D*69
$GPRMC,080121.000,A,0121.2907,N,10341.5386,E,0.17,197.65,191015,,,D*67
$GPRMC,080122.000,A,0121.2907,N,10341.5386,E,0.17,202.48,191015,,,D*64
$GPRMC,080123.000,A,0121.2907,N,10341.5386,E,0.17,194.56,191015,,,D*66
$GPRMC,080124.000,A,0121.2906,N,10341.5386,E,0.17,207.15,191015,,,D*6E
$GPRMC,080125.000,A,0121.2906,N,10341.5386,E,0.20,202.76,191015,,,D*6B
$GPRMC,080126.000,A,0121.2905,N,10341.5385,E,0.22,202.03,191015,,,D*68
$GPRMC,080127.000,A,0121.2904,N,10341.5385,E,0.24,198.90,191015,,,D*64
$GPRMC,080128.000,A,0121.2904,N,10341.5385,E,0.24,195.16,191015,,,D*68
$GPRMC,080129.000,A,0121.2903,N,10341.5385,E,0.25,195.14,191015,,,D*6D
$GPRMC,080130.000,A,0121.2902,N,10341.5385,E,0.24,194.16,191015,,,D*66
$GPRMC,080131.000,A,0121.2902,N,10341.5385,E,0.27,191.86,191015,,,D*68
$GPRMC,080132.000,A,0121.2901,N,10341.5384,E,0.28,191.50,191015,,,D*6D
$GPRMC,080133.000,A,0121.2900,N,10341.5384,E,0.29,188.18,191015,,,D*68
$GPRMC,080134.000,A,0121.2899,N,10341.5384,E,0.31,189.90,191015,,,D*66
$GPRMC,080135.000,A,0121.2898,N,10341.5384,E,0.29,189.40,191015,,,D*62
$GPRMC,080136.000,A,0121.2898,N,10341.5384,E,0.28,186.68,191015,,,D*65
$GPRMC,080137.000,A,0121.2897,N,10341.5384,E,0.27,188.68,191015,,,D*6A
$GPRMC,080138.000,A,0121.2896,N,10341.5384,E,0.27,180.92,191015,,,D*69
$GPRMC,080139.000,A,0121.2895,N,10341.5384,E,0.26,176.98,191015,,,D*69
$GPRMC,080140.000,A,0121.2895,N,10341.5384,E,0.29,175.88,191015,,,D*6A
$GPRMC,080141.000,A,0121.2894,N,10341.5384,E,0.27,172.18,191015,,,D*6A
$GPRMC,080142.000,A,0121.2893,N,10341.5384,E,0.25,167.65,191015,,,D*62
$GPRMC,080143.000,A,0121.2892,N,10341.5384,E,0.25,170.31,191015,,,D*65
$GPRMC,080144.000,A,0121.2892,N,10341.5384,E,0.29,168.59,191015,,,D*69
$GPRMC,080145.000,A,0121.2891,N,10341.5384,E,0.27,167.56,191015,,,D*65
$GPRMC,080146.000,A,0121.2890,N,10341.5385,E,0.25,170.92,191015,,,D*6A
$GPRMC,080147.000,A,0121.2890,N,10341.5385,E,0.22,169.78,191015,,,D*60
$GPRMC,080148.000,A,0121.2889,N,10341.5385,E,0.21,171.64,191015,,,D*60
$GPRMC,080149.000,A,0121.2888,N,10341.5385,E,0.20,173.44,191015,,,D*61
$GPRMC,080150.000,A,0121.2888,N,10341.5385,E,0.13,175.08,191015,,,D*67
$GPRMC,080151.000,A,0121.2888,N,10341.5385,E,0.11,177.73,191015,,,D*6A
$GPRMC,080152.000,A,0121.2887,N,10341.5385,E,0.13,177.94,191015,,,D*6D
$GPRMC,080153.000,A,0121.2887,N,10341.5385,E,0.11,176.46,191015,,,D*60
$GPRMC,080154.000,A,0121.2887,N,10341.5385,E,0.10,169.36,191015,,,D*6F
$GPRMC,080155.000,A,0121.2886,N,10341.5385,E,0.08,172.52,191015,,,D*6E
$GPRMC,080156.000,A,0121.2886,N,10341.5385,E,0.04,173.94,191015,,,D*6A
$GPRMC,080157.000,A,0121.2886,N,10341.5385,E,0.01,160.53,191015,,,D*67
$GPRMC,080158.000,A,0121.2886,N,10341.5385,E,0.03,214.13,191015,,,D*6E
$GPRMC,080159.000,A,0121.2886,N,10341.5385,E,0.01,184.53,191015,,,D*63
$GPRMC,080200.000,A,0121.2886,N,10341.5385,E,0.02,157.30,191015,,,D*64
$GPRMC,080201.000,A,0121.2886,N,10341.5385,E,0.01,320.85,191015,,,D*6A
$GPRMC,080202.000,A,0121.2886,N,10341.5385,E,0.02,156.49,191015,,,D*69
$GPRMC,080203.000,A,0121.2886,N,10341.5385,E,0.04,127.26,191015,,,D*61
$GPRMC,080204.000,A,0121.2886,N,10341.5385,E,0.04,132.62,191015,,,D*62
$GPRMC,080205.000,A,0121.2886,N,10341.5385,E,0.06,127.00,191015,,,D*61
$GPRMC,080206.000,A,0121.2886,N,10341.5385,E,0.07,134.40,191015,,,D*65
$GPRMC,080207.000,A,0121.2885,N,10341.5386,E,0.10,126.64,191015,,,D*67
$GPRMC,080208.000,A,0121.2885,N,10341.5386,E,0.09,134.04,191015,,,D*65
$GPRMC,080209.000,A,0121.2885,N,10341.5386,E,0.09,149.63,191015,,,D*6F
$GPRMC,080210.000,A,0121.2885,N,10341.5386,E,0.10,158.63,191015,,,D*6F
$GPRMC,080211.000,A,0121.2884,N,10341.5386,E,0.08,161.59,191015,,,D*65
$GPRMC,080212.000,A,0121.2884,N,10341.5386,E,0.08,144.19,191015,,,D*65
$GPRMC,080213.000,A,0121.2884,N,10341.5386,E,0.05,126.44,191015,,,D*65
$GPRMC,080214.000,A,0121.2884,N,10341.5387,E,0.04,152.99,191015,,,D*61
$GPRMC,080215.000,A,0121.2884,N,10341.5387,E,0.03,119.25,191015,,,D*6F
$GPRMC,080216.000,A,0121.2884,N,10341.5387,E,0.02,104.48,191015,,,D*6A
$GPRMC,080217.000,A,0121.2884,N,10341.5387,E,0.02,110.52,191015,,,D*65
$GPRMC,080218.000,A,0121.2884,N,10341.5387,E,0.03,105.53,191015,,,D*6E
$GPRMC,080219.000,A,0121.2884,N,10341.5387,E,0.03,35.25,191015,,,D*5C
$GPRMC,080220.000,A,0121.2884,N,10341.5387,E,0.02,106.61,191015,,,D*66
$GPRMC,080221.000,A,0121.2884,N,10341.5387,E,0.02,92.95,191015,,,D*50
$GPRMC,080222.000,A,0121.2884,N,10341.5387,E,0.01,56.57,191015,,,D*56
$GPRMC,080223.000,A,0121.2884,N,10341.5387,E,0.01,141.13,191015,,,D*60
$GPRMC,080224.000,A,0121.2884,N,10341.5387,E,0.01,89.97,191015,,,D*5E
$GPRMC,080225.000,A,0121.2884,N,10341.5387,E,0.01,319.56,191015,,,D*68
$GPRMC,080226.000,A,0121.2884,N,10341.5387,E,0.01,209.53,191015,,,D*6E
$GPRMC,080227.000,A,0121.2884,N,10341.5387,E,0.02,164.73,191015,,,D*66
