$PMTK001,220,3*30
$PMTK001,314,3*36
$PMTK705,AXN_2.31_3339_131$GPRMC,063210.000,A,0120.4569,N,10343.4003,E,0.55,71.88,031115,,,A*56
$GPRMC,063211.000,A,0120.4568,N,10343.4004,E,0.73,97.11,031115,,,A*5D
$GPRMC,063212.000,A,0120.4568,N,10343.4005,E,0.73,92.82,031115,,,A*50
$GPRMC,063213.000,A,0120.4566,N,10343.4004,E,0.50,92.82,031115,,,A*5F
$GPRMC,063214.000,A,0120.4565,N,10343.4002,E,0.43,92.82,031115,,,A*5F
$GPRMC,063215.000,A,0120.4564,N,10343.4001,E,0.38,92.82,031115,,,A*50
$GPRMC,063216.000,A,0120.4562,N,10343.3997,E,0.60,209.00,031115,,,A*63
$GPRMC,063217.000,A,0120.4560,N,10343.3993,E,0.79,215.96,031115,,,A*6E
$GPRMC,063218.000,A,0120.4557,N,10343.3990,E,0.97,218.14,031115,,,A*61
$GPRMC,063219.000,A,0120.4555,N,10343.3987,E,0.98,217.62,031115,,,A*65
$GPRMC,063220.000,A,0120.4554,N,10343.3984,E,0.93,216.06,031115,,,A*65
$GPRMC,063221.000,A,0120.4552,N,10343.3982,E,0.74,210.58,031115,,,A*60
$GPRMC,063222.000,A,0120.4551,N,10343.3979,E,0.69,211.49,031115,,,A*69
$GPRMC,063223.000,A,0120.4550,N,10343.3977,E,0.63,211.49,031115,,,A*6D
$GPRMC,063224.000,A,0120.4552,N,10343.3976,E,0.14,211.49,031115,,,A*69
$GPRMC,063225.000,A,0120.4554,N,10343.3976,E,0.68,44.67,031115,,,A*5B
$GPRMC,063226.000,A,0120.4552,N,10343.3977,E,0.63,44.67,031115,,,A*54
$GPRMC,063227.000,A,0120.4550,N,10343.3978,E,0.46,44.67,031115,,,A*5F
$GPRMC,063228.000,A,0120.4546,N,10343.3978,E,0.20,44.67,031115,,,A*57
$GPRMC,063229.000,A,0120.4545,N,10343.3977,E,0.13,44.67,031115,,,A*5A
$GPRMC,063230.000,A,0120.4545,N,10343.3978,E,0.07,44.67,031115,,,A*58
$GPRMC,063231.000,A,0120.4545,N,10343.3978,E,0.14,44.67,031115,,,A*5B
$GPRMC,063232.000,A,0120.4544,N,10343.3978,E,0.17,44.67,031115,,,A*5A
$GPRMC,063233.000,A,0120.4544,N,10343.3978,E,0.16,44.67,031115,,,A*5A
$GPRMC,063234.000,A,0120.4543,N,10343.3977,E,0.19,44.67,031115,,,A*5A
$GPRMC,063235.000,A,0120.4542,N,10343.3977,E,0.22,44.67,031115,,,A*52
$GPRMC,063236.000,A,0120.4542,N,10343.3977,E,0.29,44.67,031115,,,A*5A
$GPRMC,063237.000,A,0120.4541,N,10343.3976,E,0.40,44.67,031115,,,A*56
$GPRMC,063238.000,A,0120.4540,N,10343.3976,E,0.68,207.52,031115,,,A*61
$GPRMC,063239.000,A,0120.4532,N,10343.3973,E,1.38,211.97,031115,,,A*6A
$GPRMC,063240.000,A,0120.4531,N,10343.3977,E,1.43,198.33,031115,,,A*63
$GPRMC,063241.000,A,0120.4528,N,10343.3984,E,1.71,181.28,031115,,,A*65
$GPRMC,063242.000,A,0120.4527,N,10343.3985,E,1.65,179.54,031115,,,A*61
$GPRMC,063243.000,A,0120.4526,N,10343.3986,E,1.42,179.33,031115,,,A*66
$GPRMC,063244.000,A,0120.4524,N,10343.3987,E,1.25,173.65,031115,,,A*6A
$GPRMC,063245.000,A,0120.4521,N,10343.3989,E,0.94,164.85,031115,,,A*63
$GPRMC,063246.000,A,0120.4524,N,10343.3994,E,0.73,156.76,031115,,,A*6D
$GPRMC,063247.000,A,0120.4528,N,10343.4005,E,0.71,141.67,031115,,,A*62
$GPRMC,063248.000,A,0120.4529,N,10343.4003,E,0.50,141.67,031115,,,A*69
$GPRMC,063249.000,A,0120.4528,N,10343.4000,E,0.31,141.67,031115,,,A*6D
$GPRMC,063250.000,A,0120.4528,N,10343.3998,E,0.26,141.67,031115,,,A*6C
$GPRMC,063251.000,A,0120.4526,N,10343.3997,E,0.24,141.67,031115,,,A*6E
$GPRMC,063252.000,A,0120.4525,N,10343.3997,E,0.17,141.67,031115,,,A*6E
$GPRMC,063253.000,A,0120.4525,N,10343.3997,E,0.13,141.67,031115,,,A*6B
$GPRMC,063254.000,A,0120.4525,N,10343.3996,E,0.09,141.67,031115,,,A*66
$GPRMC,063255.000,A,0120.4525,N,10343.3996,E,0.06,141.67,031115,,,A*68
$GPRMC,063256.000,A,0120.4525,N,10343.3996,E,0.07,141.67,031115,,,A*6A
$GPRMC,063257.000,A,0120.4525,N,10343.3996,E,0.11,141.67,031115,,,A*6C
$GPRMC,063258.000,A,0120.4526,N,10343.3996,E,0.07,141.67,031115,,,A*67
$GPRMC,063259.000,A,0120.4526,N,10343.3996,E,0.03,141.67,031115,,,A*62
$GPRMC,063300.000,A,0120.4526,N,10343.3996,E,0.05,141.67,031115,,,A*69
$GPRMC,063301.000,A,0120.4526,N,10343.3996,E,0.13,141.67,031115,,,A*6F
$GPRMC,063302.000,A,0120.4526,N,10343.3996,E,0.12,141.67,031115,,,A*6D
$GPRMC,063303.000,A,0120.4525,N,10343.3996,E,0.11,141.67,031115,,,A*6C
$GPRMC,063304.000,A,0120.4525,N,10343.3997,E,0.11,141.67,031115,,,A*6A
$GPRMC,063305.000,A,0120.4525,N,10343.3997,E,0.05,141.67,031115,,,A*6E
$GPRMC,063306.000,A,0120.4525,N,10343.3997,E,0.03,141.67,031115,,,A*6B
$GPRMC,063307.000,A,0120.4525,N,10343.3997,E,0.05,141.67,031115,,,A*6C
$GPRMC,063308.000,A,0120.4525,N,10343.3997,E,0.03,141.67,031115,,,A*65
$GPRMC,063309.000,A,0120.4525,N,10343.3997,E,0.12,141.67,031115,,,A*64
$GPRMC,063310.000,A,0120.4525,N,10343.3997,E,0.10,141.67,031115,,,A*6E
$GPRMC,063311.000,A,0120.4526,N,10343.3997,E,0.14,141.67,031115,,,A*68
$GPRMC,063312.000,A,0120.4526,N,10343.3996,E,0.21,141.67,031115,,,A*6C
$GPRMC,063313.000,A,0120.4527,N,10343.3996,E,0.23,141.67,031115,,,A*6E
$GPRMC,063314.000,A,0120.4527,N,10343.3996,E,0.22,141.67,031115,,,A*68
$GPRMC,063315.000,A,0120.4527,N,10343.3995,E,0.21,141.67,031115,,,A*69
$GPRMC,063316.000,A,0120.4528,N,10343.3995,E,0.34,141.67,031115,,,A*61
$GPRMC,063317.000,A,0120.4529,N,10343.3994,E,0.34,141.67,031115,,,A*60
$GPRMC,063318.000,A,0120.4530,N,10343.3994,E,0.35,141.67,031115,,,A*66
$GPRMC,063319.000,A,0120.4531,N,10343.3993,E,0.41,141.67,031115,,,A*62
$GPRMC,063320.000,A,0120.4531,N,10343.3993,E,0.49,141.67,031115,,,A*60
$GPRMC,063321.000,A,0120.4532,N,10343.3991,E,0.69,303.47,031115,,,A*64
$GPRMC,063322.000,A,0120.4540,N,10343.3991,E,0.47,303.47,031115,,,A*6E
$GPRMC,063323.000,A,0120.4547,N,10343.3991,E,0.42,303.47,031115,,,A*6D
$GPRMC,063324.000,A,0120.4549,N,10343.3990,E,0.35,303.47,031115,,,A*65
$GPRMC,063325.000,A,0120.4551,N,10343.3990,E,0.29,303.47,031115,,,A*60
$GPRMC,063326.000,A,0120.4552,N,10343.3990,E,0.23,303.47,031115,,,A*6A
$GPRMC,063327.000,A,0120.4553,N,10343.3990,E,0.24,303.47,031115,,,A*6D
$GPRMC,063328.000,A,0120.4553,N,10343.3990,E,0.26,303.47,031115,,,A*60
$GPRMC,063329.000,A,0120.4554,N,10343.3990,E,0.24,303.47,031115,,,A*64
$GPRMC,063330.000,A,0120.4555,N,10343.3990,E,0.21,303.47,031115,,,A*68
$GPRMC,063331.000,A,0120.4556,N,10343.3990,E,0.28,303.47,031115,,,A*63
$GPRMC,063332.000,A,0120.4556,N,10343.3990,E,0.37,303.47,031115,,,A*6E
$GPRMC,063333.000,A,0120.4558,N,10343.3990,E,0.38,303.47,031115,,,A*6E
$GPRMC,063334.000,A,0120.4559,N,10343.3989,E,0.38,303.47,031115,,,A*60
$GPRMC,063335.000,A,0120.4560,N,10343.3989,E,0.41,303.47,031115,,,A*65
$GPRMC,063336.000,A,0120.4561,N,10343.3989,E,0.64,305.42,031115,,,A*63
$GPRMC,063337.000,A,0120.4563,N,10343.3989,E,0.63,301.86,031115,,,A*6B
$GPRMC,063338.000,A,0120.4569,N,10343.3989,E,0.61,315.58,031115,,,A*6A
$GPRMC,063339.000,A,0120.4574,N,10343.3989,E,0.57,315.58,031115,,,A*62
$GPRMC,063340.000,A,0120.4579,N,10343.3989,E,0.54,315.58,031115,,,A*62
$GPRMC,063341.000,A,0120.4582,N,10343.3988,E,0.49,315.58,031115,,,A*6A
$GPRMC,063342.000,A,0120.4585,N,10343.3989,E,0.44,315.58,031115,,,A*62
$GPRMC,063343.000,A,0120.4586,N,10343.3988,E,0.21,315.58,031115,,,A*62
$GPRMC,063344.000,A,0120.4586,N,10343.3988,E,0.20,315.58,031115,,,A*64
$GPRMC,063345.000,A,0120.4587,N,10343.3988,E,0.09,315.58,031115,,,A*6F
$GPRMC,063346.000,A,0120.4587,N,10343.3988,E,0.10,315.58,031115,,,A*64
$GPRMC,063347.000,A,0120.4587,N,10343.3988,E,0.09,315.58,031115,,,A*6D
$GPRMC,063348.000,A,0120.4588,N,10343.3988,E,0.11,315.58,031115,,,A*64
$GPRMC,063349.000,A,0120.4588,N,10343.3988,E,0.26,315.58,031115,,,A*61
$GPRMC,063350.000,A,0120.4588,N,10343.3988,E,0.25,315.58,031115,,,A*6A
$GPRMC,063351.000,A,0120.4589,N,10343.3989,E,0.22,315.58,031115,,,A*6C
$GPRMC,063352.000,A,0120.4590,N,10343.3989,E,0.18,315.58,031115,,,A*6E
$GPRMC,063353.000,A,0120.4590,N,10343.3989,E,0.14,315.58,031115,,,A*63
$GPRMC,063354.000,A,0120.4590,N,10343.3990,E,0.05,315.58,031115,,,A*6C
$GPRMC,063355.000,A,0120.4590,N,10343.3990,E,0.09,315.58,031115,,,A*61
$GPRMC,063356.000,A,0120.4590,N,10343.3990,E,0.09,315.58,031115,,,A*62
$GPRMC,063357.000,A,0120.4591,N,10343.3990,E,0.22,315.58,031115,,,A*6B
$GPRMC,063358.000,A,0120.4592,N,10343.3989,E,0.24,315.58,031115,,,A*69
$GPRMC,063359.000,A,0120.4592,N,10343.3989,E,0.21,315.58,031115,,,A*6D
$GPRMC,063400.000,A,0120.4593,N,10343.3988,E,0.16,315.58,031115,,,A*62
$GPRMC,063401.000,A,0120.4593,N,10343.3988,E,0.16,315.58,031115,,,A*63
$GPRMC,063402.000,A,0120.4593,N,10343.3987,E,0.14,315.58,031115,,,A*6D
$GPRMC,063403.000,A,0120.4593,N,10343.3987,E,0.05,315.58,031115,,,A*6C
$GPRMC,063404.000,A,0120.4593,N,10343.3987,E,0.04,315.58,031115,,,A*6A
$GPRMC,063405.000,A,0120.4593,N,10343.3987,E,0.05,315.58,031115,,,A*6A
$GPRMC,063406.000,A,0120.4593,N,10343.3987,E,0.08,315.58,031115,,,A*64
$GPRMC,063407.000,A,0120.4593,N,10343.3987,E,0.13,315.58,031115,,,A*6F
$GPRMC,063408.000,A,0120.4593,N,10343.3988,E,0.17,315.58,031115,,,A*6B
$GPRMC,063409.000,A,0120.4593,N,10343.3988,E,0.12,315.58,031115,,,A*6F
$GPRMC,063410.000,A,0120.4593,N,10343.3988,E,0.12,315.58,031115,,,A*67
$GPRMC,063411.000,A,0120.4592,N,10343.3988,E,0.13,315.58,031115,,,A*66
$GPRMC,063412.000,A,0120.4592,N,10343.3988,E,0.15,315.58,031115,,,A*63
$GPRMC,063413.000,A,0120.4592,N,10343.3987,E,0.13,315.58,031115,,,A*6B
$GPRMC,063414.000,A,0120.4592,N,10343.3987,E,0.11,315.58,031115,,,A*6E
$GPRMC,063415.000,A,0120.4592,N,10343.3987,E,0.13,315.58,031115,,,A*6D
$GPRMC,063416.000,A,0120.4592,N,10343.3986,E,0.14,315.58,031115,,,A*68
$GPRMC,063417.000,A,0120.4591,N,10343.3986,E,0.12,315.58,031115,,,A*6C
$GPRMC,063418.000,A,0120.4591,N,10343.3985,E,0.13,315.58,031115,,,A*61
$GPRMC,063419.000,A,0120.4591,N,10343.3985,E,0.12,315.58,031115,,,A*61
$GPRMC,063420.000,A,0120.4591,N,10343.3985,E,0.09,315.58,031115,,,A*61
$GPRMC,063421.000,A,0120.4591,N,10343.3984,E,0.13,315.58,031115,,,A*6A
$GPRMC,063422.000,A,0120.4591,N,10343.3984,E,0.20,315.58,031115,,,A*69
$GPRMC,063423.000,A,0120.4590,N,10343.3984,E,0.21,315.58,031115,,,A*68
$GPRMC,063424.000,A,0120.4590,N,10343.3984,E,0.21,315.58,031115,,,A*6F
$GPRMC,063425.000,A,0120.4589,N,10343.3984,E,0.13,315.58,031115,,,A*67
$GPRMC,063426.000,A,0120.4589,N,10343.3984,E,0.07,315.58,031115,,,A*61
$GPRMC,063427.000,A,0120.4588,N,10343.3984,E,0.02,315.58,031115,,,A*64
$GPRMC,063428.000,A,0120.4588,N,10343.3984,E,0.03,315.58,031115,,,A*6A
$GPRMC,063429.000,A,0120.4588,N,10343.3984,E,0.12,315.58,031115,,,A*6B
$GPRMC,063430.000,A,0120.4589,N,10343.3984,E,0.15,315.58,031115,,,A*65
$GPRMC,063431.000,A,0120.4589,N,10343.3985,E,0.16,315.58,031115,,,A*66
$GPRMC,063432.000,A,0120.4589,N,10343.3985,E,0.17,315.58,031115,,,A*64
$GPRMC,063433.000,A,0120.4589,N,10343.3986,E,0.27,315.58,031115,,,A*65
$GPRMC,063434.000,A,0120.4589,N,10343.3986,E,0.19,315.58,031115,,,A*6F
$GPRMC,063435.000,A,0120.4589,N,10343.3987,E,0.13,315.58,031115,,,A*65
$GPRMC,063436.000,A,0120.4589,N,10343.3987,E,0.30,315.58,031115,,,A*67
$GPRMC,063437.000,A,0120.4589,N,10343.3988,E,0.28,315.58,031115,,,A*60
$GPRMC,063438.000,A,0120.4589,N,10343.3989,E,0.24,315.58,031115,,,A*62
$GPRMC,063439.000,A,0120.4590,N,10343.3989,E,0.21,315.58,031115,,,A*6E
$GPRMC,063440.000,A,0120.4591,N,10343.3989,E,0.21,315.58,031115,,,A*61
$GPRMC,063441.000,A,0120.4591,N,10343.3989,E,0.25,315.58,031115,,,A*64
$GPRMC,063442.000,A,0120.4592,N,10343.3989,E,0.26,315.58,031115,,,A*67
$GPRMC,063443.000,A,0120.4593,N,10343.3989,E,0.27,315.58,031115,,,A*66
$GPRMC,063444.000,A,0120.4593,N,10343.3989,E,0.24,315.58,031115,,,A*62
$GPRMC,063445.000,A,0120.4594,N,10343.3989,E,0.14,315.58,031115,,,A*67
$GPRMC,063446.000,A,0120.4595,N,10343.3990,E,0.19,315.58,031115,,,A*60
$GPRMC,063447.000,A,0120.4595,N,10343.3990,E,0.11,315.58,031115,,,A*69
$GPRMC,063448.000,A,0120.4595,N,10343.3990,E,0.11,315.58,031115,,,A*66
$GPRMC,063449.000,A,0120.4595,N,10343.3990,E,0.12,315.58,031115,,,A*64
$GPRMC,063450.000,A,0120.4596,N,10343.3991,E,0.07,315.58,031115,,,A*6A
$GPRMC,063451.000,A,0120.4596,N,10343.3991,E,0.04,315.58,031115,,,A*68
$GPRMC,063452.000,A,0120.4596,N,10343.3991,E,0.07,315.58,031115,,,A*68
$GPRMC,063453.000,A,0120.4596,N,10343.3991,E,0.07,315.58,031115,,,A*69
$GPRMC,063454.000,A,0120.4596,N,10343.3991,E,0.11,315.58,031115,,,A*69
$GPRMC,063455.000,A,0120.4595,N,10343.3991,E,0.01,315.58,031115,,,A*6A
$GPRMC,063456.000,A,0120.4595,N,10343.3991,E,0.01,315.58,031115,,,A*69
$GPRMC,063457.000,A,0120.4595,N,10343.3991,E,0.05,315.58,031115,,,A*6C
$GPRMC,063458.000,A,0120.4595,N,10343.3991,E,0.13,315.58,031115,,,A*64
$GPRMC,063459.000,A,0120.4595,N,10343.3991,E,0.11,315.58,031115,,,A*67
$GPRMC,063500.000,A,0120.4595,N,10343.3991,E,0.08,315.58,031115,,,A*62
$GPRMC,063501.000,A,0120.4594,N,10343.3991,E,0.11,315.58,031115,,,A*6A
$GPRMC,063502.000,A,0120.4594,N,10343.3991,E,0.10,315.58,031115,,,A*68
$GPRMC,063503.000,A,0120.4594,N,10343.3991,E,0.04,315.58,031115,,,A*6C
$GPRMC,063504.000,A,0120.4594,N,10343.3991,E,0.22,315.58,031115,,,A*6F
$GPRMC,063505.000,A,0120.4594,N,10343.3992,E,0.16,315.58,031115,,,A*6A
$GPRMC,063506.000,A,0120.4594,N,10343.3992,E,0.14,315.58,031115,,,A*6B
$GPRMC,063507.000,A,0120.4595,N,10343.3992,E,0.14,315.58,031115,,,A*6B
$GPRMC,063508.000,A,0120.4595,N,10343.3991,E,0.25,315.58,031115,,,A*65
$GPRMC,063509.000,A,0120.4596,N,10343.3991,E,0.26,315.58,031115,,,A*64
$GPRMC,063510.000,A,0120.4597,N,10343.3991,E,0.27,315.58,031115,,,A*6C
$GPRMC,063511.000,A,0120.4597,N,10343.3991,E,0.23,315.58,031115,,,A*69
$GPRMC,063512.000,A,0120.4598,N,10343.3991,E,0.20,315.58,031115,,,A*66
$GPRMC,063513.000,A,0120.4599,N,10343.3991,E,0.16,315.58,031115,,,A*63
$GPRMC,063514.000,A,0120.4599,N,10343.3992,E,0.07,315.58,031115,,,A*67
$GPRMC,063515.000,A,0120.4599,N,10343.3992,E,0.06,315.58,031115,,,A*67
$GPRMC,063516.000,A,0120.4599,N,10343.3992,E,0.05,315.58,031115,,,A*67
$GPRMC,063517.000,A,0120.4599,N,10343.3992,E,0.14,315.58,031115,,,A*66
$GPRMC,063518.000,A,0120.4599,N,10343.3993,E,0.21,315.58,031115,,,A*6E
$GPRMC,063519.000,A,0120.4599,N,10343.3993,E,0.23,315.58,031115,,,A*6D
$GPRMC,063520.000,A,0120.4600,N,10343.3994,E,0.25,315.58,031115,,,A*65
$GPRMC,063521.000,A,0120.4600,N,10343.3994,E,0.24,315.58,031115,,,A*65
$GPRMC,063522.000,A,0120.4601,N,10343.3994,E,0.13,315.58,031115,,,A*63
$GPRMC,063523.000,A,0120.4601,N,10343.3994,E,0.12,315.58,031115,,,A*63
$GPRMC,063524.000,A,0120.4601,N,10343.3994,E,0.25,315.58,031115,,,A*60
$GPRMC,063525.000,A,0120.4600,N,10343.3994,E,0.27,315.58,031115,,,A*62
$GPRMC,063526.000,A,0120.4600,N,10343.3993,E,0.19,315.58,031115,,,A*6B
$GPRMC,063527.000,A,0120.4600,N,10343.3993,E,0.22,315.58,031115,,,A*62
$GPRMC,063528.000,A,0120.4601,N,10343.3992,E,0.19,315.58,031115,,,A*65
$GPRMC,063529.000,A,0120.4601,N,10343.3992,E,0.18,315.58,031115,,,A*65
$GPRMC,063530.000,A,0120.4602,N,10343.3992,E,0.19,315.58,031115,,,A*6F
$GPRMC,063531.000,A,0120.4602,N,10343.3991,E,0.15,315.58,031115,,,A*61
$GPRMC,063532.000,A,0120.4602,N,10343.3991,E,0.09,315.58,031115,,,A*6F
$GPRMC,063533.000,A,0120.4602,N,10343.3991,E,0.13,315.58,031115,,,A*65
$GPRMC,063534.000,A,0120.4602,N,10343.3990,E,0.04,315.58,031115,,,A*65
$GPRMC,063535.000,A,0120.4602,N,10343.3990,E,0.12,315.58,031115,,,A*63
$GPRMC,063536.000,A,0120.4601,N,10343.3990,E,0.20,315.58,031115,,,A*62
$GPRMC,063537.000,A,0120.4602,N,10343.3990,E,0.23,315.58,031115,,,A*63
$GPRMC,063538.000,A,0120.4602,N,10343.3989,E,0.22,315.58,031115,,,A*65
$GPRMC,063539.000,A,0120.4601,N,10343.3989,E,0.29,315.58,031115,,,A*6C
$GPRMC,063540.000,A,0120.4600,N,10343.3988,E,0.27,315.58,031115,,,A*6C
$GPRMC,063541.000,A,0120.4599,N,10343.3988,E,0.25,315.58,031115,,,A*6C
$GPRMC,063542.000,A,0120.4599,N,10343.3988,E,0.31,315.58,031115,,,A*6A
$GPRMC,063543.000,A,0120.4598,N,10343.3988,E,0.22,315.58,031115,,,A*68
$GPRMC,063544.000,A,0120.4597,N,10343.3989,E,0.19,315.58,031115,,,A*69
$GPRMC,063545.000,A,0120.4597,N,10343.3989,E,0.14,315.58,031115,,,A*65
$GPRMC,063546.000,A,0120.4596,N,10343.3989,E,0.14,315.58,031115,,,A*67
$GPRMC,063547.000,A,0120.4596,N,10343.3989,E,0.16,315.58,031115,,,A*64
$GPRMC,063548.000,A,0120.4596,N,10343.3990,E,0.15,315.58,031115,,,A*60
$GPRMC,063549.000,A,0120.4596,N,10343.3990,E,0.20,315.58,031115,,,A*67
$GPRMC,063550.000,A,0120.4595,N,10343.3991,E,0.20,315.58,031115,,,A*6D
$GPRMC,063551.000,A,0120.4595,N,10343.3991,E,0.27,315.58,031115,,,A*6B
$GPRMC,063552.000,A,0120.4595,N,10343.3992,E,0.30,315.58,031115,,,A*6D
$GPRMC,063553.000,A,0120.4594,N,10343.3992,E,0.32,315.58,031115,,,A*6F
$GPRMC,063554.000,A,0120.4593,N,10343.3992,E,0.40,315.58,031115,,,A*6A
$GPRMC,063555.000,A,0120.4592,N,10343.3993,E,0.36,315.58,031115,,,A*6A
$GPRMC,063556.000,A,0120.4591,N,10343.3992,E,0.29,315.58,031115,,,A*65
$GPRMC,063557.000,A,0120.4591,N,10343.3992,E,0.21,315.58,031115,,,A*6C
$GPRMC,063558.000,A,0120.4590,N,10343.3992,E,0.18,315.58,031115,,,A*68
$GPRMC,063559.000,A,0120.4590,N,10343.3991,E,0.45,315.58,031115,,,A*62
$GPRMC,063600.000,A,0120.4590,N,10343.3990,E,0.29,315.58,031115,,,A*66
$GPRMC,063601.000,A,0120.4590,N,10343.3989,E,0.32,315.58,031115,,,A*65
$GPRMC,063602.000,A,0120.4591,N,10343.3988,E,0.36,315.58,031115,,,A*62
$GPRMC,063603.000,A,0120.4592,N,10343.3988,E,0.36,315.58,031115,,,A*60
$GPRMC,063604.000,A,0120.4593,N,10343.3988,E,0.23,315.58,031115,,,A*62
$GPRMC,063605.000,A,0120.4593,N,10343.3988,E,0.16,315.58,031115,,,A*65
$GPRMC,063606.000,A,0120.4594,N,10343.3987,E,0.15,315.58,031115,,,A*6D
$GPRMC,063607.000,A,0120.4594,N,10343.3987,E,0.18,315.58,031115,,,A*61
$GPRMC,063608.000,A,0120.4595,N,10343.3987,E,0.16,315.58,031115,,,A*61
$GPRMC,063609.000,A,0120.4595,N,10343.3987,E,0.26,315.58,031115,,,A*63
$GPRMC,063610.000,A,0120.4596,N,10343.3987,E,0.37,315.58,031115,,,A*68
$GPRMC,063611.000,A,0120.4597,N,10343.3987,E,0.39,315.58,031115,,,A*66
$GPRMC,063612.000,A,0120.4598,N,10343.3987,E,0.40,315.58,031115,,,A*64
$GPRMC,063613.000,A,0120.4599,N,10343.3987,E,0.40,315.58,031115,,,A*64
$GPRMC,063614.000,A,0120.4600,N,10343.3987,E,0.32,315.58,031115,,,A*65
$GPRMC,063615.000,A,0120.4601,N,10343.3987,E,0.22,315.58,031115,,,A*64
$GPRMC,063616.000,A,0120.4602,N,10343.3986,E,0.18,315.58,031115,,,A*6C
$GPRMC,063617.000,A,0120.4602,N,10343.3986,E,0.19,315.58,031115,,,A*6C
$GPRMC,063618.000,A,0120.4603,N,10343.3986,E,0.17,315.58,031115,,,A*6C
$GPRMC,063619.000,A,0120.4603,N,10343.3985,E,0.15,315.58,031115,,,A*6C
$GPRMC,063620.000,A,0120.4604,N,10343.3985,E,0.13,315.58,031115,,,A*67
$GPRMC,063621.000,A,0120.4604,N,10343.3985,E,0.17,315.58,031115,,,A*62
$GPRMC,063622.000,A,0120.4604,N,10343.3984,E,0.35,315.58,031115,,,A*60
$GPRMC,063623.000,A,0120.4605,N,10343.3984,E,0.31,315.58,031115,,,A*64
$GPRMC,063624.000,A,0120.4606,N,10343.3984,E,0.33,315.58,031115,,,A*62
$GPRMC,063625.000,A,0120.4607,N,10343.3983,E,0.36,315.58,031115,,,A*60
$GPRMC,063626.000,A,0120.4608,N,10343.3983,E,0.29,315.58,031115,,,A*62
$GPRMC,063627.000,A,0120.4609,N,10343.3982,E,0.22,315.58,031115,,,A*68
$GPRMC,063628.000,A,0120.4609,N,10343.3982,E,0.22,315.58,031115,,,A*67
$GPRMC,063629.000,A,0120.4610,N,10343.3983,E,0.12,315.58,031115,,,A*6C
$GPRMC,063630.000,A,0120.4610,N,10343.3983,E,0.07,315.58,031115,,,A*60
$GPRMC,063631.000,A,0120.4610,N,10343.3983,E,0.05,315.58,031115,,,A*63
$GPRMC,063632.000,A,0120.4610,N,10343.3983,E,0.14,315.58,031115,,,A*60
$GPRMC,063633.000,A,0120.4610,N,10343.3983,E,0.11,315.58,031115,,,A*64
$GPRMC,063634.000,A,0120.4610,N,10343.3983,E,0.10,315.58,031115,,,A*62
$GPRMC,063635.000,A,0120.4610,N,10343.3982,E,0.19,315.58,031115,,,A*6B
$GPRMC,063636.000,A,0120.4611,N,10343.3982,E,0.34,315.58,031115,,,A*66
$GPRMC,063637.000,A,0120.4611,N,10343.3981,E,0.34,315.58,031115,,,A*64
$GPRMC,063638.000,A,0120.4612,N,10343.3980,E,0.43,315.58,031115,,,A*69
$GPRMC,063639.000,A,0120.4612,N,10343.3979,E,0.35,315.58,031115,,,A*6F
$GPRMC,063640.000,A,0120.4613,N,10343.3978,E,0.20,315.58,031115,,,A*65
$GPRMC,063641.000,A,0120.4613,N,10343.3977,E,0.26,315.58,031115,,,A*6D
$GPRMC,063642.000,A,0120.4614,N,10343.3977,E,0.21,315.58,031115,,,A*6E
$GPRMC,063643.000,A,0120.4614,N,10343.3977,E,0.20,315.58,031115,,,A*6E
$GPRMC,063644.000,A,0120.4615,N,10343.3976,E,0.21,315.58,031115,,,A*68
$GPRMC,063645.000,A,0120.4615,N,10343.3976,E,0.23,315.58,031115,,,A*6B
$GPRMC,063646.000,A,0120.4616,N,10343.3975,E,0.30,315.58,031115,,,A*6A
$GPRMC,063647.000,A,0120.4616,N,10343.3974,E,0.26,315.58,031115,,,A*6D
$GPRMC,063648.000,A,0120.4616,N,10343.3973,E,0.26,315.58,031115,,,A*65
$GPRMC,063649.000,A,0120.4616,N,10343.3973,E,0.12,315.58,031115,,,A*63
$GPRMC,063650.000,A,0120.4616,N,10343.3972,E,0.07,315.58,031115,,,A*6E
$GPRMC,063651.000,A,0120.4616,N,10343.3972,E,0.02,315.58,031115,,,A*6A
$GPRMC,063652.000,A,0120.4616,N,10343.3972,E,0.09,315.58,031115,,,A*62
$GPRMC,063653.000,A,0120.4616,N,10343.3972,E,0.21,315.58,031115,,,A*69
$GPRMC,063654.000,A,0120.4616,N,10343.3973,E,0.14,315.58,031115,,,A*69
$GPRMC,063655.000,A,0120.4616,N,10343.3973,E,0.07,315.58,031115,,,A*6A
$GPRMC,063656.000,A,0120.4616,N,10343.3973,E,0.07,315.58,031115,,,A*69
$GPRMC,063657.000,A,0120.4615,N,10343.3973,E,0.11,315.58,031115,,,A*6C
$GPRMC,063658.000,A,0120.4615,N,10343.3973,E,0.07,315.58,031115,,,A*64
$GPRMC,063659.000,A,0120.4616,N,10343.3972,E,0.15,315.58,031115,,,A*64
$GPRMC,063700.000,A,0120.4616,N,10343.3972,E,0.23,315.58,031115,,,A*6C
$GPRMC,063701.000,A,0120.4616,N,10343.3972,E,0.26,315.58,031115,,,A*68
$GPRMC,063702.000,A,0120.4617,N,10343.3971,E,0.40,315.58,031115,,,A*69
$GPRMC,063703.000,A,0120.4618,N,10343.3970,E,0.32,315.58,031115,,,A*63
$GPRMC,063704.000,A,0120.4618,N,10343.3970,E,0.23,315.58,031115,,,A*64
$GPRMC,063705.000,A,0120.4619,N,10343.3969,E,0.22,315.58,031115,,,A*6D
$GPRMC,063706.000,A,0120.4619,N,10343.3968,E,0.25,315.58,031115,,,A*68
$GPRMC,063707.000,A,0120.4619,N,10343.3968,E,0.28,315.58,031115,,,A*64
$GPRMC,063708.000,A,0120.4620,N,10343.3968,E,0.34,315.58,031115,,,A*6C
$GPRMC,063709.000,A,0120.4621,N,10343.3968,E,0.25,315.58,031115,,,A*6C
$GPRMC,063710.000,A,0120.4622,N,10343.3968,E,0.11,315.58,031115,,,A*60
$GPRMC,063711.000,A,0120.4622,N,10343.3968,E,0.14,315.58,031115,,,A*64
$GPRMC,063712.000,A,0120.4622,N,10343.3967,E,0.23,315.58,031115,,,A*6C
$GPRMC,063713.000,A,0120.4622,N,10343.3967,E,0.22,315.58,031115,,,A*6C
$GPRMC,063714.000,A,0120.4622,N,10343.3966,E,0.16,315.58,031115,,,A*6D
$GPRMC,063715.000,A,0120.4623,N,10343.3966,E,0.20,315.58,031115,,,A*68
$GPRMC,063716.000,A,0120.4623,N,10343.3966,E,0.05,315.58,031115,,,A*6C
$GPRMC,063717.000,A,0120.4623,N,10343.3966,E,0.07,315.58,031115,,,A*6F
$GPRMC,063718.000,A,0120.4623,N,10343.3966,E,0.15,315.58,031115,,,A*63
$GPRMC,063719.000,A,0120.4623,N,10343.3966,E,0.09,315.58,031115,,,A*6F
$GPRMC,063720.000,A,0120.4623,N,10343.3967,E,0.06,315.58,031115,,,A*6B
$GPRMC,063721.000,A,0120.4623,N,10343.3967,E,0.05,315.58,031115,,,A*69
$GPRMC,063722.000,A,0120.4623,N,10343.3967,E,0.12,315.58,031115,,,A*6C
$GPRMC,063723.000,A,0120.4623,N,10343.3967,E,0.04,315.58,031115,,,A*6A
$GPRMC,063724.000,A,0120.4623,N,10343.3967,E,0.18,315.58,031115,,,A*60
$GPRMC,063725.000,A,0120.4623,N,10343.3967,E,0.12,315.58,031115,,,A*6B
$GPRMC,063726.000,A,0120.4622,N,10343.3967,E,0.12,315.58,031115,,,A*69
$GPRMC,063727.000,A,0120.4622,N,10343.3967,E,0.15,315.58,031115,,,A*6F
$GPRMC,063728.000,A,0120.4622,N,10343.3966,E,0.16,315.58,031115,,,A*62
$GPRMC,063729.000,A,0120.4622,N,10343.3966,E,0.20,315.58,031115,,,A*66
$GPRMC,063730.000,A,0120.4622,N,10343.3966,E,0.15,315.58,031115,,,A*68
$GPRMC,063731.000,A,0120.4622,N,10343.3966,E,0.13,315.58,031115,,,A*6F
$GPRMC,063732.000,A,0120.4622,N,10343.3966,E,0.12,315.58,031115,,,A*6D
$GPRMC,063733.000,A,0120.4622,N,10343.3966,E,0.03,315.58,031115,,,A*6C
$GPRMC,063734.000,A,0120.4622,N,10343.3966,E,0.08,315.58,031115,,,A*60
$GPRMC,063735.000,A,0120.4622,N,10343.3966,E,0.24,315.58,031115,,,A*6F
$GPRMC,063736.000,A,0120.4621,N,10343.3965,E,0.48,315.58,031115,,,A*66
$GPRMC,063737.000,A,0120.4620,N,10343.3965,E,0.42,315.58,031115,,,A*6C
$GPRMC,063738.000,A,0120.4619,N,10343.3964,E,0.20,315.58,031115,,,A*6C
$GPRMC,063739.000,A,0120.4618,N,10343.3964,E,0.09,315.58,031115,,,A*67
$GPRMC,063740.000,A,0120.4618,N,10343.3964,E,0.14,315.58,031115,,,A*65
$GPRMC,063741.000,A,0120.4617,N,10343.3964,E,0.21,315.58,031115,,,A*6D
$GPRMC,063742.000,A,0120.4617,N,10343.3964,E,0.07,315.58,031115,,,A*6A
$GPRMC,063743.000,A,0120.4617,N,10343.3964,E,0.03,315.58,031115,,,A*6F
$GPRMC,063744.000,A,0120.4617,N,10343.3964,E,0.15,315.58,031115,,,A*6F
$GPRMC,063745.000,A,0120.4616,N,10343.3963,E,0.12,315.58,031115,,,A*6F
$GPRMC,063746.000,A,0120.4616,N,10343.3963,E,0.08,315.58,031115,,,A*67
$GPRMC,063747.000,A,0120.4616,N,10343.3963,E,0.22,315.58,031115,,,A*6E
$GPRMC,063748.000,A,0120.4615,N,10343.3963,E,0.34,315.58,031115,,,A*65
$GPRMC,063749.000,A,0120.4614,N,10343.3963,E,0.31,315.58,031115,,,A*60
$GPRMC,063750.000,A,0120.4614,N,10343.3963,E,0.13,315.58,031115,,,A*68
$GPRMC,063751.000,A,0120.4613,N,10343.3963,E,0.14,315.58,031115,,,A*69
$GPRMC,063752.000,A,0120.4613,N,10343.3963,E,0.09,315.58,031115,,,A*66
$GPRMC,063753.000,A,0120.4613,N,10343.3963,E,0.11,315.58,031115,,,A*6E
$GPRMC,063754.000,A,0120.4614,N,10343.3963,E,0.04,315.58,031115,,,A*6A
$GPRMC,063755.000,A,0120.4614,N,10343.3963,E,0.13,315.58,031115,,,A*6D
$GPRMC,063756.000,A,0120.4613,N,10343.3963,E,0.17,315.58,031115,,,A*6D
$GPRMC,063757.000,A,0120.4613,N,10343.3963,E,0.19,315.58,031115,,,A*62
$GPRMC,063758.000,A,0120.4612,N,10343.3963,E,0.25,315.58,031115,,,A*63
$GPRMC,063759.000,A,0120.4612,N,10343.3963,E,0.30,315.58,031115,,,A*66
$GPRMC,063800.000,A,0120.4611,N,10343.3963,E,0.12,315.58,031115,,,A*66
$GPRMC,063801.000,A,0120.4610,N,10343.3963,E,0.11,315.58,031115,,,A*65
$GPRMC,063802.000,A,0120.4610,N,10343.3963,E,0.12,315.58,031115,,,A*65
$GPRMC,063803.000,A,0120.4610,N,10343.3963,E,0.11,315.58,031115,,,A*67
$GPRMC,063804.000,A,0120.4610,N,10343.3963,E,0.09,315.58,031115,,,A*69
$GPRMC,063805.000,A,0120.4609,N,10343.3963,E,0.19,315.58,031115,,,A*61
$GPRMC,063806.000,A,0120.4609,N,10343.3963,E,0.32,315.58,031115,,,A*6B
$GPRMC,063807.000,A,0120.4608,N,10343.3963,E,0.16,315.58,031115,,,A*6D
$GPRMC,063808.000,A,0120.4608,N,10343.3963,E,0.25,315.58,031115,,,A*62
$GPRMC,063809.000,A,0120.4607,N,10343.3964,E,0.28,315.58,031115,,,A*66
$GPRMC,063810.000,A,0120.4607,N,10343.3965,E,0.23,315.58,031115,,,A*64
$GPRMC,063811.000,A,0120.4607,N,10343.3965,E,0.21,315.58,031115,,,A*67
$GPRMC,063812.000,A,0120.4607,N,10343.3966,E,0.23,315.58,031115,,,A*65
$GPRMC,063813.000,A,0120.4606,N,10343.3966,E,0.14,315.58,031115,,,A*61
$GPRMC,063814.000,A,0120.4606,N,10343.3966,E,0.16,315.58,031115,,,A*64
$GPRMC,063815.000,A,0120.4606,N,10343.3966,E,0.13,315.58,031115,,,A*60
$GPRMC,063816.000,A,0120.4606,N,10343.3965,E,0.19,315.58,031115,,,A*6A
$GPRMC,063817.000,A,0120.4607,N,10343.3965,E,0.16,315.58,031115,,,A*65
$GPRMC,063818.000,A,0120.4607,N,10343.3965,E,0.04,315.58,031115,,,A*69
$GPRMC,063819.000,A,0120.4607,N,10343.3965,E,0.16,315.58,031115,,,A*6B
$GPRMC,063820.000,A,0120.4607,N,10343.3965,E,0.15,315.58,031115,,,A*62
$GPRMC,063821.000,A,0120.4606,N,10343.3965,E,0.19,315.58,031115,,,A*6E
$GPRMC,063822.000,A,0120.4606,N,10343.3966,E,0.35,315.58,031115,,,A*60
$GPRMC,063823.000,A,0120.4606,N,10343.3967,E,0.43,315.58,031115,,,A*61
$GPRMC,063824.000,A,0120.4606,N,10343.3968,E,0.64,94.11,031115,,,A*5B
$GPRMC,063825.000,A,0120.4613,N,10343.3975,E,0.95,71.02,031115,,,A*55
$GPRMC,063826.000,A,0120.4616,N,10343.3979,E,0.98,68.17,031115,,,A*5E
$GPRMC,063827.000,A,0120.4618,N,10343.3983,E,1.04,68.72,031115,,,A*53
$GPRMC,063828.000,A,0120.4620,N,10343.3986,E,1.05,69.11,031115,,,A*57
$GPRMC,063829.000,A,0120.4620,N,10343.3990,E,1.04,71.54,031115,,,A*58
$GPRMC,063830.000,A,0120.4622,N,10343.3992,E,0.88,75.65,031115,,,A*53
$GPRMC,063831.000,A,0120.4623,N,10343.3994,E,0.89,73.29,031115,,,A*5A
$GPRMC,063832.000,A,0120.4624,N,10343.3997,E,0.91,69.07,031115,,,A*53
$GPRMC,063833.000,A,0120.4626,N,10343.3998,E,0.88,67.59,031115,,,A*52
$GPRMC,063834.000,A,0120.4625,N,10343.3999,E,0.72,72.42,031115,,,A*5C
$GPRMC,063835.000,A,0120.4626,N,10343.3998,E,0.65,75.39,031115,,,A*52
$GPRMC,063836.000,A,0120.4628,N,10343.3998,E,0.61,75.39,031115,,,A*5B
$GPRMC,063837.000,A,0120.4626,N,10343.3997,E,0.42,75.39,031115,,,A*5A
$GPRMC,063838.000,A,0120.4626,N,10343.3997,E,0.35,75.39,031115,,,A*55
$GPRMC,063839.000,A,0120.4626,N,10343.3995,E,0.16,75.39,031115,,,A*57
$GPRMC,063840.000,A,0120.4626,N,10343.3995,E,0.13,75.39,031115,,,A*5C
$GPRMC,063841.000,A,0120.4626,N,10343.3996,E,0.25,75.39,031115,,,A*5B
$GPRMC,063842.000,A,0120.4625,N,10343.3996,E,0.41,75.39,031115,,,A*59
$GPRMC,063843.000,A,0120.4624,N,10343.3997,E,0.40,75.39,031115,,,A*59
$GPRMC,063844.000,A,0120.4623,N,10343.3997,E,0.33,75.39,031115,,,A*5D
$GPRMC,063845.000,A,0120.4622,N,10343.3998,E,0.31,75.39,031115,,,A*50
$GPRMC,063846.000,A,0120.4622,N,10343.3999,E,0.41,75.39,031115,,,A*55
$GPRMC,063847.000,A,0120.4621,N,10343.3999,E,0.40,75.39,031115,,,A*56
$GPRMC,063848.000,A,0120.4620,N,10343.4000,E,0.30,75.39,031115,,,A*51
$GPRMC,063849.000,A,0120.4620,N,10343.4001,E,0.23,75.39,031115,,,A*53
$GPRMC,063850.000,A,0120.4620,N,10343.4001,E,0.27,75.39,031115,,,A*5F
$GPRMC,063851.000,A,0120.4621,N,10343.4001,E,0.40,75.39,031115,,,A*5E
$GPRMC,063852.000,A,0120.4622,N,10343.4001,E,0.76,3.10,031115,,,A*61
$GPRMC,063853.000,A,0120.4623,N,10343.3999,E,0.74,351.92,031115,,,A*62
$GPRMC,063854.000,A,0120.4626,N,10343.3997,E,0.78,348.11,031115,,,A*61
$GPRMC,063855.000,A,0120.4630,N,10343.3996,E,1.10,352.48,031115,,,A*6E
$GPRMC,063856.000,A,0120.4635,N,10343.4004,E,1.61,19.49,031115,,,A*56
$GPRMC,063857.000,A,0120.4637,N,10343.4008,E,1.64,26.20,031115,,,A*5F
$GPRMC,063858.000,A,0120.4640,N,10343.4012,E,1.66,30.41,031115,,,A*59
$GPRMC,063859.000,A,0120.4643,N,10343.4015,E,1.66,33.54,031115,,,A*5B
$GPRMC,063900.000,A,0120.4646,N,10343.4016,E,1.48,32.54,031115,,,A*5D
$GPRMC,063901.000,A,0120.4646,N,10343.4014,E,1.26,32.76,031115,,,A*56
$GPRMC,063902.000,A,0120.4648,N,10343.4013,E,1.20,31.80,031115,,,A*50
$GPRMC,063903.000,A,0120.4651,N,10343.4010,E,1.16,24.98,031115,,,A*52
$GPRMC,063904.000,A,0120.4654,N,10343.4008,E,1.14,19.43,031115,,,A*53
$GPRMC,063905.000,A,0120.4657,N,10343.4007,E,1.12,16.87,031115,,,A*5F
$GPRMC,063906.000,A,0120.4658,N,10343.4006,E,1.09,16.03,031115,,,A*54
$GPRMC,063907.000,A,0120.4657,N,10343.4005,E,0.84,14.63,031115,,,A*59
$GPRMC,063908.000,A,0120.4657,N,10343.4005,E,0.77,18.16,031115,,,A*54
$GPRMC,063909.000,A,0120.4657,N,10343.4005,E,0.72,24.15,031115,,,A*5C
$GPRMC,063910.000,A,0120.4656,N,10343.4005,E,0.66,28.95,031115,,,A*54
$GPRMC,063911.000,A,0120.4656,N,10343.4007,E,0.63,35.07,031115,,,A*55
$GPRMC,063912.000,A,0120.4656,N,10343.4005,E,0.34,35.07,031115,,,A*56
$GPRMC,063913.000,A,0120.4651,N,10343.4006,E,0.16,35.07,031115,,,A*53
$GPRMC,063914.000,A,0120.4650,N,10343.4004,E,0.43,35.07,031115,,,A*57
$GPRMC,063915.000,A,0120.4644,N,10343.4004,E,0.71,216.71,031115,,,A*60
$GPRMC,063916.000,A,0120.4641,N,10343.4004,E,0.72,214.65,031115,,,A*62
$GPRMC,063917.000,A,0120.4638,N,10343.4003,E,0.75,212.97,031115,,,A*66
$GPRMC,063918.000,A,0120.4639,N,10343.4003,E,0.74,211.98,031115,,,A*65
$GPRMC,063919.000,A,0120.4634,N,10343.4006,E,0.72,205.91,031115,,,A*66
$GPRMC,063920.000,A,0120.4631,N,10343.4009,E,0.72,205.78,031115,,,A*61
$GPRMC,063921.000,A,0120.4630,N,10343.4010,E,0.71,203.21,031115,,,A*60
$GPRMC,063922.000,A,0120.4626,N,10343.4011,E,0.74,204.51,031115,,,A*60
$GPRMC,063923.000,A,0120.4623,N,10343.4014,E,0.76,197.64,031115,,,A*6C
$GPRMC,063924.000,A,0120.4620,N,10343.4018,E,0.75,187.36,031115,,,A*61
$GPRMC,063925.000,A,0120.4617,N,10343.4021,E,0.51,187.36,031115,,,A*68
$GPRMC,063926.000,A,0120.4615,N,10343.4024,E,0.47,187.36,031115,,,A*6B
$GPRMC,063927.000,A,0120.4614,N,10343.4027,E,0.46,187.36,031115,,,A*69
$GPRMC,063928.000,A,0120.4614,N,10343.4026,E,0.30,187.36,031115,,,A*66
$GPRMC,063929.000,A,0120.4614,N,10343.4026,E,0.30,187.36,031115,,,A*67
$GPRMC,063930.000,A,0120.4614,N,10343.4027,E,0.33,187.36,031115,,,A*6D
$GPRMC,063931.000,A,0120.4614,N,10343.4028,E,0.21,187.36,031115,,,A*60
$GPRMC,063932.000,A,0120.4613,N,10343.4029,E,0.14,187.36,031115,,,A*63
$GPRMC,063933.000,A,0120.4613,N,10343.4029,E,0.21,187.36,031115,,,A*64
$GPRMC,063934.000,A,0120.4612,N,10343.4029,E,0.23,187.36,031115,,,A*60
$GPRMC,063935.000,A,0120.4612,N,10343.4029,E,0.39,187.36,031115,,,A*6A
$GPRMC,063936.000,A,0120.4611,N,10343.4028,E,0.37,187.36,031115,,,A*65
$GPRMC,063937.000,A,0120.4610,N,10343.4027,E,0.29,187.36,031115,,,A*65
$GPRMC,063938.000,A,0120.4609,N,10343.4027,E,0.16,187.36,031115,,,A*6E
$GPRMC,063939.000,A,0120.4609,N,10343.4027,E,0.34,187.36,031115,,,A*6F
$GPRMC,063940.000,A,0120.4609,N,10343.4028,E,0.32,187.36,031115,,,A*68
$GPRMC,063941.000,A,0120.4610,N,10343.4029,E,0.32,187.36,031115,,,A*60
$GPRMC,063942.000,A,0120.4610,N,10343.4029,E,1.05,45.62,031115,,,A*58
$GPRMC,063943.000,A,0120.4613,N,10343.4027,E,1.06,44.22,031115,,,A*52
$GPRMC,063944.000,A,0120.4612,N,10343.4027,E,0.77,49.86,031115,,,A*50
$GPRMC,063945.000,A,0120.4607,N,10343.4032,E,0.34,49.86,031115,,,A*56
$GPRMC,063946.000,A,0120.4603,N,10343.4037,E,0.31,49.86,031115,,,A*51
$GPRMC,063947.000,A,0120.4599,N,10343.4040,E,0.28,49.86,031115,,,A*58
$GPRMC,063948.000,A,0120.4604,N,10343.4042,E,0.08,49.86,031115,,,A*50
$GPRMC,063949.000,A,0120.4603,N,10343.4042,E,0.12,49.86,031115,,,A*5D
$GPRMC,063950.000,A,0120.4604,N,10343.4042,E,0.14,49.86,031115,,,A*54
$GPRMC,063951.000,A,0120.4604,N,10343.4042,E,0.13,49.86,031115,,,A*52
$GPRMC,063952.000,A,0120.4604,N,10343.4042,E,0.37,49.86,031115,,,A*57
$GPRMC,063953.000,A,0120.4605,N,10343.4042,E,0.39,49.86,031115,,,A*59
$GPRMC,063954.000,A,0120.4606,N,10343.4041,E,0.30,49.86,031115,,,A*57
$GPRMC,063955.000,A,0120.4607,N,10343.4040,E,0.27,49.86,031115,,,A*50
$GPRMC,063956.000,A,0120.4607,N,10343.4039,E,0.58,235.87,031115,,,A*6D
$GPRMC,063957.000,A,0120.4608,N,10343.4033,E,0.65,247.81,031115,,,A*64
$GPRMC,063958.000,A,0120.4606,N,10343.4028,E,1.05,246.28,031115,,,A*6A
$GPRMC,063959.000,A,0120.4606,N,10343.4021,E,1.38,252.87,031115,,,A*6C
$GPRMC,064000.000,A,0120.4603,N,10343.4015,E,1.56,255.53,031115,,,A*6A
$GPRMC,064001.000,A,0120.4596,N,10343.4007,E,1.89,261.35,031115,,,A*62
$GPRMC,064002.000,A,0120.4586,N,10343.4003,E,2.21,263.41,031115,,,A*64
$GPRMC,064003.000,A,0120.4583,N,10343.3996,E,2.20,266.03,031115,,,A*60
$GPRMC,064004.000,A,0120.4581,N,10343.3990,E,2.20,266.15,031115,,,A*64
$GPRMC,064005.000,A,0120.4579,N,10343.3985,E,2.16,266.57,031115,,,A*65
$GPRMC,064006.000,A,0120.4577,N,10343.3980,E,2.11,268.15,031115,,,A*62
$GPRMC,064007.000,A,0120.4574,N,10343.3973,E,2.12,269.16,031115,,,A*6D
$GPRMC,064008.000,A,0120.4573,N,10343.3966,E,2.10,270.41,031115,,,A*69
$GPRMC,064009.000,A,0120.4569,N,10343.3958,E,1.94,272.11,031115,,,A*66
$GPRMC,064010.000,A,0120.4563,N,10343.3948,E,1.89,273.85,031115,,,A*65
$GPRMC,064011.000,A,0120.4560,N,10343.3941,E,1.83,274.87,031115,,,A*61
$GPRMC,064012.000,A,0120.4557,N,10343.3933,E,1.81,273.55,031115,,,A*69
$GPRMC,064013.000,A,0120.4556,N,10343.3927,E,1.80,269.51,031115,,,A*62
$GPRMC,064014.000,A,0120.4557,N,10343.3918,E,1.77,270.12,031115,,,A*6F
$GPRMC,064015.000,A,0120.4557,N,10343.3906,E,2.07,269.20,031115,,,A*6C
$GPRMC,064016.000,A,0120.4557,N,10343.3893,E,2.37,266.17,031115,,,A*6A
$GPRMC,064017.000,A,0120.4562,N,10343.3877,E,2.80,272.36,031115,,,A*6D
$GPRMC,064018.000,A,0120.4565,N,10343.3868,E,2.55,279.60,031115,,,A*6B
$GPRMC,064019.000,A,0120.4566,N,10343.3859,E,2.34,283.64,031115,,,A*6D
$GPRMC,064020.000,A,0120.4570,N,10343.3853,E,2.17,282.71,031115,,,A*6E
$GPRMC,064021.000,A,0120.4572,N,10343.3846,E,2.01,284.06,031115,,,A*68
$GPRMC,064022.000,A,0120.4575,N,10343.3838,E,2.06,283.45,031115,,,A*62
$GPRMC,064023.000,A,0120.4575,N,10343.3832,E,2.04,281.48,031115,,,A*64
$GPRMC,064024.000,A,0120.4579,N,10343.3825,E,2.05,284.39,031115,,,A*6B
$GPRMC,064025.000,A,0120.4581,N,10343.3820,E,1.86,290.13,031115,,,A*6D
$GPRMC,064026.000,A,0120.4585,N,10343.3814,E,1.66,297.81,031115,,,A*6F
$GPRMC,064027.000,A,0120.4588,N,10343.3806,E,1.67,297.47,031115,,,A*6B
$GPRMC,064028.000,A,0120.4592,N,10343.3802,E,1.67,295.52,031115,,,A*6D
$GPRMC,064029.000,A,0120.4594,N,10343.3798,E,1.68,292.66,031115,,,A*69
$GPRMC,064030.000,A,0120.4597,N,10343.3793,E,1.95,284.69,031115,,,A*63
$GPRMC,064031.000,A,0120.4599,N,10343.3790,E,1.88,284.44,031115,,,A*6C
$GPRMC,064032.000,A,0120.4603,N,10343.3785,E,1.83,292.57,031115,,,A*65
$GPRMC,064033.000,A,0120.4608,N,10343.3777,E,1.84,298.73,031115,,,A*69
$GPRMC,064034.000,A,0120.4612,N,10343.3772,E,1.87,300.60,031115,,,A*61
$GPRMC,064035.000,A,0120.4615,N,10343.3766,E,1.89,298.64,031115,,,A*68
$GPRMC,064036.000,A,0120.4618,N,10343.3761,E,1.89,298.20,031115,,,A*61
$GPRMC,064037.000,A,0120.4622,N,10343.3756,E,1.93,301.25,031115,,,A*62
$GPRMC,064038.000,A,0120.4625,N,10343.3752,E,1.94,301.11,031115,,,A*6E
$GPRMC,064039.000,A,0120.4628,N,10343.3747,E,1.97,301.38,031115,,,A*6E
$GPRMC,064040.000,A,0120.4632,N,10343.3743,E,1.99,302.39,031115,,,A*63
$GPRMC,064041.000,A,0120.4636,N,10343.3741,E,1.98,305.51,031115,,,A*6C
$GPRMC,064042.000,A,0120.4640,N,10343.3739,E,1.94,309.22,031115,,,A*65
$GPRMC,064043.000,A,0120.4643,N,10343.3737,E,1.74,308.71,031115,,,A*60
$GPRMC,064044.000,A,0120.4644,N,10343.3734,E,1.39,295.64,031115,,,A*6B
$GPRMC,064045.000,A,0120.4647,N,10343.3727,E,1.62,287.53,031115,,,A*62
$GPRMC,064046.000,A,0120.4649,N,10343.3723,E,1.63,284.69,031115,,,A*60
$GPRMC,064047.000,A,0120.4651,N,10343.3718,E,1.64,285.72,031115,,,A*6C
$GPRMC,064048.000,A,0120.4652,N,10343.3714,E,1.60,283.53,031115,,,A*6D
$GPRMC,064049.000,A,0120.4651,N,10343.3710,E,1.57,279.58,031115,,,A*61
$GPRMC,064050.000,A,0120.4648,N,10343.3706,E,1.57,261.41,031115,,,A*67
$GPRMC,064051.000,A,0120.4645,N,10343.3700,E,1.76,254.45,031115,,,A*6C
$GPRMC,064052.000,A,0120.4644,N,10343.3697,E,1.73,251.54,031115,,,A*61
$GPRMC,064053.000,A,0120.4643,N,10343.3694,E,1.50,252.10,031115,,,A*66
$GPRMC,064054.000,A,0120.4641,N,10343.3692,E,1.48,249.10,031115,,,A*66
$GPRMC,064055.000,A,0120.4639,N,10343.3689,E,1.44,247.48,031115,,,A*6D
$GPRMC,064056.000,A,0120.4640,N,10343.3684,E,1.39,251.25,031115,,,A*6B
$GPRMC,064057.000,A,0120.4641,N,10343.3680,E,1.34,261.18,031115,,,A*6F
$GPRMC,064058.000,A,0120.4642,N,10343.3675,E,1.32,265.02,031115,,,A*60
$GPRMC,064059.000,A,0120.4641,N,10343.3668,E,1.58,265.01,031115,,,A*61
$GPRMC,064100.000,A,0120.4638,N,10343.3655,E,2.56,254.55,031115,,,A*62
$GPRMC,064101.000,A,0120.4638,N,10343.3648,E,2.53,261.05,031115,,,A*69
$GPRMC,064102.000,A,0120.4638,N,10343.3643,E,2.14,267.39,031115,,,A*6B
$GPRMC,064103.000,A,0120.4642,N,10343.3642,E,1.45,300.03,031115,,,A*68
$GPRMC,064104.000,A,0120.4649,N,10343.3633,E,1.67,308.95,031115,,,A*65
$GPRMC,064105.000,A,0120.4656,N,10343.3626,E,1.70,316.06,031115,,,A*6D
$GPRMC,064106.000,A,0120.4659,N,10343.3622,E,1.70,313.84,031115,,,A*6A
$GPRMC,064107.000,A,0120.4664,N,10343.3614,E,1.68,311.22,031115,,,A*67
$GPRMC,064108.000,A,0120.4667,N,10343.3607,E,1.69,307.06,031115,,,A*69
$GPRMC,064109.000,A,0120.4672,N,10343.3598,E,1.92,305.26,031115,,,A*6D
$GPRMC,064110.000,A,0120.4677,N,10343.3592,E,1.89,306.71,031115,,,A*61
$GPRMC,064111.000,A,0120.4682,N,10343.3588,E,1.89,307.74,031115,,,A*65
$GPRMC,064112.000,A,0120.4686,N,10343.3582,E,1.88,306.89,031115,,,A*6A
$GPRMC,064113.000,A,0120.4691,N,10343.3577,E,1.89,302.17,031115,,,A*65
$GPRMC,064114.000,A,0120.4696,N,10343.3568,E,2.16,287.89,031115,,,A*65
$GPRMC,064115.000,A,0120.4703,N,10343.3556,E,2.65,288.91,031115,,,A*66
$GPRMC,064116.000,A,0120.4707,N,10343.3550,E,2.49,292.87,031115,,,A*65
$GPRMC,064117.000,A,0120.4711,N,10343.3544,E,2.43,295.39,031115,,,A*6E
$GPRMC,064118.000,A,0120.4715,N,10343.3539,E,2.20,297.93,031115,,,A*68
$GPRMC,064119.000,A,0120.4719,N,10343.3535,E,1.90,311.32,031115,,,A*65
$GPRMC,064120.000,A,0120.4724,N,10343.3530,E,1.48,319.26,031115,,,A*6C
$GPRMC,064121.000,A,0120.4730,N,10343.3525,E,1.20,323.82,031115,,,A*65
$GPRMC,064122.000,A,0120.4735,N,10343.3519,E,1.21,323.26,031115,,,A*63
$GPRMC,064123.000,A,0120.4740,N,10343.3514,E,1.25,318.75,031115,,,A*67
$GPRMC,064124.000,A,0120.4742,N,10343.3505,E,1.24,296.79,031115,,,A*68
$GPRMC,064125.000,A,0120.4744,N,10343.3500,E,1.24,289.25,031115,,,A*6D
$GPRMC,064126.000,A,0120.4744,N,10343.3496,E,0.98,266.61,031115,,,A*67
$GPRMC,064127.000,A,0120.4730,N,10343.3467,E,9.67,197.42,031115,,,A*6E
$GPRMC,064128.000,A,0120.4708,N,10343.3458,E,8.22,195.46,031115,,,A*60
$GPRMC,064129.000,A,0120.4689,N,10343.3451,E,6.50,195.09,031115,,,A*60
$GPRMC,064130.000,A,0120.4680,N,10343.3445,E,3.72,226.17,031115,,,A*65
$GPRMC,064131.000,A,0120.4676,N,10343.3439,E,2.25,246.19,031115,,,A*6D
$GPRMC,064132.000,A,0120.4678,N,10343.3440,E,0.83,316.65,031115,,,A*6F
$GPRMC,064133.000,A,0120.4676,N,10343.3436,E,1.23,287.38,031115,,,A*6B
$GPRMC,064134.000,A,0120.4678,N,10343.3432,E,1.25,279.84,031115,,,A*66
$GPRMC,064135.000,A,0120.4680,N,10343.3427,E,1.47,280.43,031115,,,A*6D
$GPRMC,064136.000,A,0120.4681,N,10343.3423,E,1.52,280.73,031115,,,A*6C
$GPRMC,064137.000,A,0120.4679,N,10343.3418,E,1.54,271.66,031115,,,A*6E
$GPRMC,064138.000,A,0120.4679,N,10343.3416,E,1.30,268.29,031115,,,A*6E
$GPRMC,064139.000,A,0120.4679,N,10343.3412,E,1.30,271.81,031115,,,A*61
$GPRMC,064140.000,A,0120.4679,N,10343.3407,E,1.32,268.08,031115,,,A*60
$GPRMC,064141.000,A,0120.4670,N,10343.3401,E,1.75,249.06,031115,,,A*60
$GPRMC,064142.000,A,0120.4661,N,10343.3392,E,2.34,246.50,031115,,,A*64
$GPRMC,064143.000,A,0120.4660,N,10343.3386,E,2.36,250.64,031115,,,A*63
$GPRMC,064144.000,A,0120.4658,N,10343.3382,E,2.32,249.22,031115,,,A*65
$GPRMC,064145.000,A,0120.4657,N,10343.3377,E,2.25,248.71,031115,,,A*60
$GPRMC,064146.000,A,0120.4654,N,10343.3376,E,1.99,243.25,031115,,,A*6F
$GPRMC,064147.000,A,0120.4655,N,10343.3379,E,1.17,240.12,031115,,,A*61
$GPRMC,064148.000,A,0120.4655,N,10343.3379,E,1.00,239.89,031115,,,A*64
$GPRMC,064149.000,A,0120.4655,N,10343.3376,E,1.07,242.63,031115,,,A*65
$GPRMC,064150.000,A,0120.4656,N,10343.3374,E,1.09,245.01,031115,,,A*61
$GPRMC,064151.000,A,0120.4661,N,10343.3371,E,1.10,255.12,031115,,,A*6A
$GPRMC,064152.000,A,0120.4669,N,10343.3367,E,1.12,266.03,031115,,,A*64
$GPRMC,064153.000,A,0120.4673,N,10343.3364,E,1.14,276.54,031115,,,A*68
$GPRMC,064154.000,A,0120.4679,N,10343.3361,E,1.15,279.70,031115,,,A*68
$GPRMC,064155.000,A,0120.4680,N,10343.3359,E,1.14,280.83,031115,,,A*6F
$GPRMC,064156.000,A,0120.4680,N,10343.3358,E,1.12,271.34,031115,,,A*69
$GPRMC,064157.000,A,0120.4678,N,10343.3355,E,1.12,254.66,031115,,,A*62
$GPRMC,064158.000,A,0120.4676,N,10343.3353,E,1.14,248.74,031115,,,A*6D
$GPRMC,064159.000,A,0120.4674,N,10343.3352,E,1.17,243.92,031115,,,A*6F
$GPRMC,064200.000,A,0120.4674,N,10343.3352,E,1.18,241.41,031115,,,A*63
$GPRMC,064201.000,A,0120.4686,N,10343.3350,E,0.91,270.18,031115,,,A*63
$GPRMC,064202.000,A,0120.4688,N,10343.3349,E,0.89,277.44,031115,,,A*61
$GPRMC,064203.000,A,0120.4697,N,10343.3347,E,0.93,301.85,031115,,,A*66
$GPRMC,064204.000,A,0120.4704,N,10343.3350,E,0.93,321.72,031115,,,A*66
$GPRMC,064205.000,A,0120.4710,N,10343.3349,E,0.97,316.78,031115,,,A*60
$GPRMC,064206.000,A,0120.4715,N,10343.3350,E,0.96,319.42,031115,,,A*69
$GPRMC,064207.000,A,0120.4719,N,10343.3354,E,0.72,330.76,031115,,,A*66
$GPRMC,064208.000,A,0120.4720,N,10343.3357,E,0.68,338.54,031115,,,A*63
$GPRMC,064209.000,A,0120.4722,N,10343.3357,E,0.69,333.43,031115,,,A*6C
$GPRMC,064210.000,A,0120.4725,N,10343.3355,E,0.64,320.96,031115,,,A*66
$GPRMC,064211.000,A,0120.4730,N,10343.3349,E,0.66,306.97,031115,,,A*69
$GPRMC,064212.000,A,0120.4734,N,10343.3346,E,0.67,291.03,031115,,,A*62
$GPRMC,064213.000,A,0120.4738,N,10343.3341,E,0.68,290.52,031115,,,A*62
$GPRMC,064214.000,A,0120.4738,N,10343.3337,E,0.95,291.92,031115,,,A*6B
$GPRMC,064215.000,A,0120.4742,N,10343.3330,E,1.13,283.24,031115,,,A*61
$GPRMC,064216.000,A,0120.4743,N,10343.3325,E,1.19,282.55,031115,,,A*6A
$GPRMC,064217.000,A,0120.4745,N,10343.3319,E,1.40,285.89,031115,,,A*68
$GPRMC,064218.000,A,0120.4747,N,10343.3313,E,1.47,283.59,031115,,,A*63
$GPRMC,064219.000,A,0120.4750,N,10343.3305,E,1.65,283.41,031115,,,A*6A
$GPRMC,064220.000,A,0120.4750,N,10343.3299,E,1.65,278.95,031115,,,A*69
$GPRMC,064221.000,A,0120.4751,N,10343.3293,E,1.65,276.44,031115,,,A*61
$GPRMC,064222.000,A,0120.4751,N,10343.3288,E,1.63,275.34,031115,,,A*6A
$GPRMC,064223.000,A,0120.4753,N,10343.3283,E,1.65,279.38,031115,,,A*64
$GPRMC,064224.000,A,0120.4754,N,10343.3279,E,1.64,279.78,031115,,,A*64
$GPRMC,064225.000,A,0120.4755,N,10343.3275,E,1.62,280.95,031115,,,A*6B
$GPRMC,064226.000,A,0120.4755,N,10343.3274,E,1.32,283.86,031115,,,A*6D
$GPRMC,064227.000,A,0120.4754,N,10343.3274,E,1.25,283.27,031115,,,A*60
$GPRMC,064228.000,A,0120.4754,N,10343.3275,E,1.04,288.73,031115,,,A*67
$GPRMC,064229.000,A,0120.4753,N,10343.3276,E,0.97,286.72,031115,,,A*66
$GPRMC,064230.000,A,0120.4753,N,10343.3275,E,0.90,289.67,031115,,,A*61
$GPRMC,064231.000,A,0120.4753,N,10343.3274,E,0.71,295.73,031115,,,A*66
$GPRMC,064232.000,A,0120.4751,N,10343.3273,E,0.68,289.27,031115,,,A*64
$GPRMC,064233.000,A,0120.4751,N,10343.3272,E,0.65,287.40,031115,,,A*66
$GPRMC,064234.000,A,0120.4752,N,10343.3270,E,0.62,287.26,031115,,,A*67
$GPRMC,064235.000,A,0120.4748,N,10343.3268,E,0.61,267.79,031115,,,A*63
$GPRMC,064236.000,A,0120.4749,N,10343.3264,E,0.64,276.60,031115,,,A*60
$GPRMC,064237.000,A,0120.4748,N,10343.3262,E,0.62,275.08,031115,,,A*6D
$GPRMC,064238.000,A,0120.4746,N,10343.3258,E,0.63,273.59,031115,,,A*66
$GPRMC,064239.000,A,0120.4745,N,10343.3256,E,0.65,271.95,031115,,,A*6E
$GPRMC,064240.000,A,0120.4742,N,10343.3262,E,0.62,271.95,031115,,,A*67
$GPRMC,064241.000,A,0120.4739,N,10343.3266,E,0.31,271.95,031115,,,A*68
$GPRMC,064242.000,A,0120.4738,N,10343.3270,E,0.25,271.95,031115,,,A*68
$GPRMC,064243.000,A,0120.4737,N,10343.3272,E,0.22,271.95,031115,,,A*63
$GPRMC,064244.000,A,0120.4737,N,10343.3271,E,0.07,271.95,031115,,,A*60
$GPRMC,064245.000,A,0120.4736,N,10343.3271,E,0.05,271.95,031115,,,A*62
$GPRMC,064246.000,A,0120.4737,N,10343.3271,E,0.24,271.95,031115,,,A*63
$GPRMC,064247.000,A,0120.4737,N,10343.3272,E,0.37,271.95,031115,,,A*63
$GPRMC,064248.000,A,0120.4738,N,10343.3272,E,0.34,271.95,031115,,,A*60
$GPRMC,064249.000,A,0120.4739,N,10343.3273,E,0.25,271.95,031115,,,A*61
$GPRMC,064250.000,A,0120.4740,N,10343.3273,E,0.28,271.95,031115,,,A*6A
$GPRMC,064251.000,A,0120.4740,N,10343.3273,E,0.17,271.95,031115,,,A*67
$GPRMC,064252.000,A,0120.4741,N,10343.3273,E,0.12,271.95,031115,,,A*60
$GPRMC,064253.000,A,0120.4741,N,10343.3272,E,0.14,271.95,031115,,,A*66
$GPRMC,064254.000,A,0120.4741,N,10343.3272,E,0.18,271.95,031115,,,A*6D
$GPRMC,064255.000,A,0120.4741,N,10343.3271,E,0.25,271.95,031115,,,A*61
$GPRMC,064256.000,A,0120.4741,N,10343.3271,E,0.35,271.95,031115,,,A*63
$GPRMC,064257.000,A,0120.4741,N,10343.3270,E,0.32,271.95,031115,,,A*64
$GPRMC,064258.000,A,0120.4740,N,10343.3269,E,0.23,271.95,031115,,,A*62
$GPRMC,064259.000,A,0120.4740,N,10343.3268,E,0.15,271.95,031115,,,A*67
$GPRMC,064300.000,A,0120.4740,N,10343.3268,E,0.12,271.95,031115,,,A*6D
$GPRMC,064301.000,A,0120.4741,N,10343.3268,E,0.26,271.95,031115,,,A*6A
$GPRMC,064302.000,A,0120.4741,N,10343.3268,E,0.12,271.95,031115,,,A*6E
$GPRMC,064303.000,A,0120.4741,N,10343.3267,E,0.13,271.95,031115,,,A*61
$GPRMC,064304.000,A,0120.4741,N,10343.3267,E,0.09,271.95,031115,,,A*6D
$GPRMC,064305.000,A,0120.4741,N,10343.3267,E,0.10,271.95,031115,,,A*64
$GPRMC,064306.000,A,0120.4741,N,10343.3266,E,0.24,271.95,031115,,,A*61
$GPRMC,064307.000,A,0120.4741,N,10343.3265,E,0.73,253.90,031115,,,A*64
$GPRMC,064308.000,A,0120.4740,N,10343.3259,E,0.76,253.01,031115,,,A*68
$GPRMC,064309.000,A,0120.4740,N,10343.3257,E,0.73,250.93,031115,,,A*6A
$GPRMC,064310.000,A,0120.4740,N,10343.3258,E,0.15,250.93,031115,,,A*6D
$GPRMC,064311.000,A,0120.4738,N,10343.3257,E,0.10,250.93,031115,,,A*69
$GPRMC,064312.000,A,0120.4739,N,10343.3257,E,0.08,250.93,031115,,,A*62
$GPRMC,064313.000,A,0120.4737,N,10343.3255,E,0.06,250.93,031115,,,A*61
$GPRMC,064314.000,A,0120.4737,N,10343.3255,E,0.16,250.93,031115,,,A*67
$GPRMC,064315.000,A,0120.4737,N,10343.3255,E,0.12,250.93,031115,,,A*62
$GPRMC,064316.000,A,0120.4737,N,10343.3255,E,0.14,250.93,031115,,,A*67
$GPRMC,064317.000,A,0120.4736,N,10343.3255,E,0.28,250.93,031115,,,A*68
$GPRMC,064318.000,A,0120.4737,N,10343.3254,E,0.13,250.93,031115,,,A*6F
$GPRMC,064319.000,A,0120.4737,N,10343.3255,E,0.26,250.93,031115,,,A*69
$GPRMC,064320.000,A,0120.4738,N,10343.3255,E,0.23,250.93,031115,,,A*69
$GPRMC,064321.000,A,0120.4738,N,10343.3256,E,0.21,250.93,031115,,,A*69
$GPRMC,064322.000,A,0120.4738,N,10343.3256,E,0.29,250.93,031115,,,A*62
$GPRMC,064323.000,A,0120.4738,N,10343.3257,E,0.36,250.93,031115,,,A*6C
$GPRMC,064324.000,A,0120.4738,N,10343.3258,E,0.28,250.93,031115,,,A*6B
$GPRMC,064325.000,A,0120.4738,N,10343.3259,E,0.28,250.93,031115,,,A*6B
$GPRMC,064326.000,A,0120.4738,N,10343.3260,E,0.27,250.93,031115,,,A*6D
$GPRMC,064327.000,A,0120.4737,N,10343.3261,E,0.22,250.93,031115,,,A*67
$GPRMC,064328.000,A,0120.4737,N,10343.3261,E,0.23,250.93,031115,,,A*69
$GPRMC,064329.000,A,0120.4736,N,10343.3261,E,0.16,250.93,031115,,,A*6F
$GPRMC,064330.000,A,0120.4736,N,10343.3261,E,0.10,250.93,031115,,,A*61
$GPRMC,064331.000,A,0120.4735,N,10343.3261,E,0.06,250.93,031115,,,A*64
$GPRMC,064332.000,A,0120.4735,N,10343.3261,E,0.07,250.93,031115,,,A*66
$GPRMC,064333.000,A,0120.4735,N,10343.3261,E,0.05,250.93,031115,,,A*65
$GPRMC,064334.000,A,0120.4735,N,10343.3261,E,0.18,250.93,031115,,,A*6E
$GPRMC,064335.000,A,0120.4735,N,10343.3261,E,0.33,250.93,031115,,,A*66
$GPRMC,064336.000,A,0120.4734,N,10343.3260,E,0.26,250.93,031115,,,A*61
$GPRMC,064337.000,A,0120.4733,N,10343.3260,E,0.20,250.93,031115,,,A*61
$GPRMC,064338.000,A,0120.4733,N,10343.3260,E,0.08,250.93,031115,,,A*64
$GPRMC,064339.000,A,0120.4733,N,10343.3260,E,0.07,250.93,031115,,,A*6A
$GPRMC,064340.000,A,0120.4733,N,10343.3260,E,0.06,250.93,031115,,,A*65
$GPRMC,064341.000,A,0120.4733,N,10343.3260,E,0.19,250.93,031115,,,A*6A
$GPRMC,064342.000,A,0120.4732,N,10343.3260,E,0.21,250.93,031115,,,A*63
$GPRMC,064343.000,A,0120.4732,N,10343.3261,E,0.23,250.93,031115,,,A*61
$GPRMC,064344.000,A,0120.4732,N,10343.3261,E,0.20,250.93,031115,,,A*65
$GPRMC,064345.000,A,0120.4732,N,10343.3261,E,0.16,250.93,031115,,,A*61
$GPRMC,064346.000,A,0120.4732,N,10343.3261,E,0.23,250.93,031115,,,A*64
$GPRMC,064347.000,A,0120.4732,N,10343.3260,E,0.27,250.93,031115,,,A*60
$GPRMC,064348.000,A,0120.4732,N,10343.3260,E,0.02,250.93,031115,,,A*68
$GPRMC,064349.000,A,0120.4732,N,10343.3260,E,0.53,250.93,031115,,,A*6D
$GPRMC,064350.000,A,0120.4732,N,10343.3261,E,0.50,250.93,031115,,,A*67
$GPRMC,064351.000,A,0120.4732,N,10343.3263,E,0.55,250.93,031115,,,A*61
$GPRMC,064352.000,A,0120.4731,N,10343.3264,E,0.71,115.41,031115,,,A*6D
$GPRMC,064353.000,A,0120.4729,N,10343.3264,E,0.74,117.36,031115,,,A*62
$GPRMC,064354.000,A,0120.4727,N,10343.3265,E,0.73,116.60,031115,,,A*6F
$GPRMC,064355.000,A,0120.4722,N,10343.3272,E,0.74,111.65,031115,,,A*68
$GPRMC,064356.000,A,0120.4715,N,10343.3279,E,1.10,114.92,031115,,,A*6A
$GPRMC,064357.000,A,0120.4710,N,10343.3285,E,1.13,116.71,031115,,,A*61
$GPRMC,064358.000,A,0120.4709,N,10343.3286,E,0.84,123.25,031115,,,A*6D
$GPRMC,064359.000,A,0120.4706,N,10343.3285,E,0.49,123.25,031115,,,A*61
$GPRMC,064400.000,A,0120.4702,N,10343.3290,E,0.79,133.67,031115,,,A*6E
$GPRMC,064401.000,A,0120.4697,N,10343.3293,E,0.98,143.34,031115,,,A*6F
$GPRMC,064402.000,A,0120.4695,N,10343.3295,E,0.96,142.54,031115,,,A*61
$GPRMC,064403.000,A,0120.4693,N,10343.3298,E,0.92,137.73,031115,,,A*68
$GPRMC,064404.000,A,0120.4691,N,10343.3301,E,0.91,135.05,031115,,,A*6C
$GPRMC,064405.000,A,0120.4686,N,10343.3305,E,0.96,139.77,031115,,,A*61
$GPRMC,064406.000,A,0120.4682,N,10343.3308,E,1.01,141.39,031115,,,A*61
$GPRMC,064407.000,A,0120.4678,N,10343.3310,E,0.99,142.83,031115,,,A*6E
$GPRMC,064408.000,A,0120.4675,N,10343.3313,E,1.00,143.50,031115,,,A*61
$GPRMC,064409.000,A,0120.4670,N,10343.3313,E,1.01,150.58,031115,,,A*6E
$GPRMC,064410.000,A,0120.4664,N,10343.3314,E,1.02,154.49,031115,,,A*63
$GPRMC,064411.000,A,0120.4661,N,10343.3314,E,1.03,157.37,031115,,,A*6C
$GPRMC,064412.000,A,0120.4661,N,10343.3310,E,0.69,160.10,031115,,,A*67
$GPRMC,064413.000,A,0120.4658,N,10343.3311,E,0.66,155.17,031115,,,A*63
$GPRMC,064414.000,A,0120.4655,N,10343.3313,E,0.66,153.03,031115,,,A*68
$GPRMC,064415.000,A,0120.4658,N,10343.3307,E,0.59,153.03,031115,,,A*6D
$GPRMC,064416.000,A,0120.4660,N,10343.3301,E,0.40,153.03,031115,,,A*6B
$GPRMC,064417.000,A,0120.4661,N,10343.3295,E,0.39,153.03,031115,,,A*69
$GPRMC,064418.000,A,0120.4662,N,10343.3289,E,0.44,153.03,031115,,,A*62
$GPRMC,064419.000,A,0120.4661,N,10343.3288,E,0.58,153.03,031115,,,A*6C
$GPRMC,064420.000,A,0120.4660,N,10343.3287,E,0.45,153.03,031115,,,A*64
$GPRMC,064421.000,A,0120.4659,N,10343.3286,E,0.34,153.03,031115,,,A*68
$GPRMC,064422.000,A,0120.4659,N,10343.3285,E,0.26,153.03,031115,,,A*6B
$GPRMC,064423.000,A,0120.4658,N,10343.3285,E,0.39,153.03,031115,,,A*65
$GPRMC,064424.000,A,0120.4657,N,10343.3284,E,0.50,153.03,031115,,,A*63
$GPRMC,064425.000,A,0120.4656,N,10343.3283,E,0.42,153.03,031115,,,A*67
$GPRMC,064426.000,A,0120.4656,N,10343.3282,E,0.35,153.03,031115,,,A*65
$GPRMC,064427.000,A,0120.4655,N,10343.3281,E,0.34,153.03,031115,,,A*65
$GPRMC,064428.000,A,0120.4654,N,10343.3281,E,0.45,153.03,031115,,,A*6D
$GPRMC,064429.000,A,0120.4653,N,10343.3280,E,0.50,153.03,031115,,,A*6E
$GPRMC,064430.000,A,0120.4652,N,10343.3279,E,0.43,153.03,031115,,,A*63
$GPRMC,064431.000,A,0120.4652,N,10343.3278,E,0.47,153.03,031115,,,A*67
$GPRMC,064432.000,A,0120.4651,N,10343.3277,E,0.47,153.03,031115,,,A*68
$GPRMC,064433.000,A,0120.4650,N,10343.3276,E,0.38,153.03,031115,,,A*61
$GPRMC,064434.000,A,0120.4649,N,10343.3275,E,0.27,153.03,031115,,,A*63
$GPRMC,064435.000,A,0120.4648,N,10343.3275,E,0.34,153.03,031115,,,A*61
$GPRMC,064436.000,A,0120.4648,N,10343.3274,E,0.23,153.03,031115,,,A*65
$GPRMC,064437.000,A,0120.4647,N,10343.3274,E,0.20,153.03,031115,,,A*68
$GPRMC,064438.000,A,0120.4647,N,10343.3274,E,0.09,153.03,031115,,,A*6C
$GPRMC,064439.000,A,0120.4647,N,10343.3274,E,0.15,153.03,031115,,,A*60
$GPRMC,064440.000,A,0120.4647,N,10343.3275,E,0.15,153.03,031115,,,A*6F
$GPRMC,064441.000,A,0120.4646,N,10343.3275,E,0.12,153.03,031115,,,A*68
$GPRMC,064442.000,A,0120.4646,N,10343.3275,E,0.19,153.03,031115,,,A*60
$GPRMC,064443.000,A,0120.4646,N,10343.3276,E,0.49,153.03,031115,,,A*67
$GPRMC,064444.000,A,0120.4645,N,10343.3277,E,0.56,153.03,031115,,,A*6C
$GPRMC,064445.000,A,0120.4644,N,10343.3278,E,0.47,153.03,031115,,,A*63
$GPRMC,064446.000,A,0120.4643,N,10343.3278,E,0.42,153.03,031115,,,A*62
$GPRMC,064447.000,A,0120.4642,N,10343.3279,E,0.44,153.03,031115,,,A*65
$GPRMC,064448.000,A,0120.4641,N,10343.3280,E,0.32,153.03,031115,,,A*6E
$GPRMC,064449.000,A,0120.4640,N,10343.3280,E,0.25,153.03,031115,,,A*68
$GPRMC,064450.000,A,0120.4639,N,10343.3280,E,0.31,153.03,031115,,,A*6B
$GPRMC,064451.000,A,0120.4638,N,10343.3280,E,0.29,153.03,031115,,,A*62
$GPRMC,064452.000,A,0120.4637,N,10343.3280,E,0.22,153.03,031115,,,A*65
$GPRMC,064453.000,A,0120.4637,N,10343.3279,E,0.12,153.03,031115,,,A*61
$GPRMC,064454.000,A,0120.4637,N,10343.3279,E,0.10,153.03,031115,,,A*64
$GPRMC,064455.000,A,0120.4636,N,10343.3279,E,0.03,153.03,031115,,,A*66
$GPRMC,064456.000,A,0120.4636,N,10343.3279,E,0.08,153.03,031115,,,A*6E
$GPRMC,064457.000,A,0120.4636,N,10343.3279,E,0.05,153.03,031115,,,A*62
$GPRMC,064458.000,A,0120.4636,N,10343.3279,E,0.04,153.03,031115,,,A*6C
$GPRMC,064459.000,A,0120.4636,N,10343.3278,E,0.10,153.03,031115,,,A*69
$GPRMC,064500.000,A,0120.4636,N,10343.3279,E,0.14,153.03,031115,,,A*61
$GPRMC,064501.000,A,0120.4636,N,10343.3279,E,0.12,153.03,031115,,,A*66
$GPRMC,064502.000,A,0120.4635,N,10343.3279,E,0.13,153.03,031115,,,A*67
$GPRMC,064503.000,A,0120.4635,N,10343.3279,E,0.46,153.03,031115,,,A*66
$GPRMC,064504.000,A,0120.4634,N,10343.3279,E,0.49,153.03,031115,,,A*6F
$GPRMC,064505.000,A,0120.4632,N,10343.3279,E,0.53,153.03,031115,,,A*63
$GPRMC,064506.000,A,0120.4631,N,10343.3279,E,0.62,186.51,031115,,,A*6E
$GPRMC,064507.000,A,0120.4628,N,10343.3280,E,0.61,190.98,031115,,,A*60
$GPRMC,064508.000,A,0120.4626,N,10343.3280,E,0.54,190.98,031115,,,A*67
$GPRMC,064509.000,A,0120.4623,N,10343.3280,E,0.50,190.98,031115,,,A*67
$GPRMC,064510.000,A,0120.4621,N,10343.3281,E,0.48,190.98,031115,,,A*65
$GPRMC,064511.000,A,0120.4622,N,10343.3282,E,0.42,190.98,031115,,,A*6E
$GPRMC,064512.000,A,0120.4621,N,10343.3282,E,0.35,190.98,031115,,,A*6E
$GPRMC,064513.000,A,0120.4620,N,10343.3283,E,0.34,190.98,031115,,,A*6E
$GPRMC,064514.000,A,0120.4619,N,10343.3283,E,0.27,190.98,031115,,,A*61
$GPRMC,064515.000,A,0120.4619,N,10343.3284,E,0.17,190.98,031115,,,A*64
$GPRMC,064516.000,A,0120.4618,N,10343.3284,E,0.10,190.98,031115,,,A*61
$GPRMC,064517.000,A,0120.4618,N,10343.3284,E,0.15,190.98,031115,,,A*65
$GPRMC,064518.000,A,0120.4618,N,10343.3283,E,0.18,190.98,031115,,,A*60
$GPRMC,064519.000,A,0120.4618,N,10343.3283,E,0.22,190.98,031115,,,A*68
$GPRMC,064520.000,A,0120.4618,N,10343.3282,E,0.37,190.98,031115,,,A*67
$GPRMC,064521.000,A,0120.4618,N,10343.3281,E,0.38,190.98,031115,,,A*6A
$GPRMC,064522.000,A,0120.4618,N,10343.3280,E,0.41,190.98,031115,,,A*66
$GPRMC,064523.000,A,0120.4618,N,10343.3279,E,0.45,190.98,031115,,,A*65
$GPRMC,064524.000,A,0120.4619,N,10343.3277,E,0.52,190.98,031115,,,A*6B
$GPRMC,064525.000,A,0120.4619,N,10343.3276,E,0.55,190.98,031115,,,A*6C
$GPRMC,064526.000,A,0120.4619,N,10343.3274,E,0.48,190.98,031115,,,A*61
$GPRMC,064527.000,A,0120.4619,N,10343.3273,E,0.47,190.98,031115,,,A*68
$GPRMC,064528.000,A,0120.4620,N,10343.3272,E,0.47,190.98,031115,,,A*6C
$GPRMC,064529.000,A,0120.4621,N,10343.3271,E,0.48,190.98,031115,,,A*60
$GPRMC,064530.000,A,0120.4622,N,10343.3270,E,0.49,190.98,031115,,,A*6B
$GPRMC,064531.000,A,0120.4622,N,10343.3269,E,0.50,190.98,031115,,,A*6A
$GPRMC,064532.000,A,0120.4623,N,10343.3268,E,0.49,190.98,031115,,,A*61
$GPRMC,064533.000,A,0120.4624,N,10343.3267,E,0.49,190.98,031115,,,A*68
$GPRMC,064534.000,A,0120.4625,N,10343.3266,E,0.49,190.98,031115,,,A*6F
$GPRMC,064535.000,A,0120.4626,N,10343.3264,E,0.51,190.98,031115,,,A*66
$GPRMC,064536.000,A,0120.4627,N,10343.3263,E,0.50,190.98,031115,,,A*62
$GPRMC,064537.000,A,0120.4628,N,10343.3262,E,0.49,190.98,031115,,,A*65
$GPRMC,064538.000,A,0120.4629,N,10343.3261,E,0.54,190.98,031115,,,A*64
$GPRMC,064539.000,A,0120.4630,N,10343.3260,E,0.52,190.98,031115,,,A*6A
$GPRMC,064540.000,A,0120.4631,N,10343.3259,E,0.50,190.98,031115,,,A*6D
$GPRMC,064541.000,A,0120.4632,N,10343.3258,E,0.44,190.98,031115,,,A*6B
$GPRMC,064542.000,A,0120.4633,N,10343.3258,E,0.48,190.98,031115,,,A*65
$GPRMC,064543.000,A,0120.4634,N,10343.3258,E,1.09,51.41,031115,,,A*5F
$GPRMC,064544.000,A,0120.4634,N,10343.3270,E,1.32,60.33,031115,,,A*5D
$GPRMC,064545.000,A,0120.4631,N,10343.3289,E,1.71,69.80,031115,,,A*59
$GPRMC,064546.000,A,0120.4629,N,10343.3310,E,2.14,75.29,031115,,,A*5C
$GPRMC,064547.000,A,0120.4627,N,10343.3324,E,2.19,79.17,031115,,,A*58
$GPRMC,064548.000,A,0120.4624,N,10343.3338,E,2.26,82.90,031115,,,A*5E
$GPRMC,064549.000,A,0120.4620,N,10343.3358,E,2.54,85.11,031115,,,A*56
$GPRMC,064550.000,A,0120.4605,N,10343.3392,E,3.02,89.45,031115,,,A*50
$GPRMC,064551.000,A,0120.4588,N,10343.3431,E,3.64,92.42,031115,,,A*54
$GPRMC,064552.000,A,0120.4562,N,10343.3477,E,4.28,97.03,031115,,,A*5E
$GPRMC,064553.000,A,0120.4514,N,10343.3543,E,5.27,103.37,031115,,,A*6D
$GPRMC,064554.000,A,0120.4464,N,10343.3619,E,6.45,106.85,031115,,,A*6B
$GPRMC,064555.000,A,0120.4432,N,10343.3671,E,7.18,108.32,031115,,,A*6C
$GPRMC,064556.000,A,0120.4396,N,10343.3722,E,7.83,110.55,031115,,,A*6B
$GPRMC,064557.000,A,0120.4379,N,10343.3750,E,8.00,111.59,031115,,,A*67
$GPRMC,064558.000,A,0120.4359,N,10343.3776,E,8.07,113.31,031115,,,A*65
$GPRMC,064559.000,A,0120.4343,N,10343.3800,E,8.13,114.76,031115,,,A*60
$GPRMC,064600.000,A,0120.4324,N,10343.3825,E,8.33,116.51,031115,,,A*6C
$GPRMC,064601.000,A,0120.4286,N,10343.3833,E,8.31,124.43,031115,,,A*63
$GPRMC,064602.000,A,0120.4268,N,10343.3847,E,8.25,125.48,031115,,,A*6C
