$GPRMC,060623.000,A,0120.4687,N,10343.3953,E,0.33,222.11,031115,$GPRMC,060624.000,A,0120.4688,N,10343.3953,E,0.28,222.11,031115,,,A*6F
$GPRMC,060625.000,A,0120.4689,N,10343.3952,E,0.14,222.11,031115,,,A*61
$GPRMC,060626.000,A,0120.4689,N,10343.3953,E,0.15,222.11,031115,,,A*62
$GPRMC,060627.000,A,0120.4690,N,10343.3953,E,0.14,222.11,031115,,,A*6A
$GPRMC,060628.000,A,0120.4690,N,10343.3953,E,0.20,222.11,031115,,,A*62
$GPRMC,060629.000,A,0120.4691,N,10343.3953,E,0.28,222.11,031115,,,A*6A
$GPRMC,060630.000,A,0120.4691,N,10343.3953,E,0.36,222.11,031115,,,A*6D
$GPRMC,060631.000,A,0120.4692,N,10343.3954,E,0.44,222.11,031115,,,A*6D
$GPRMC,060632.000,A,0120.4693,N,10343.3955,E,0.56,222.11,031115,,,A*6D
$GPRMC,060633.000,A,0120.4694,N,10343.3956,E,0.77,30.72,031115,,,A*5F
$GPRMC,060634.000,A,0120.4695,N,10343.3958,E,0.70,38.82,031115,,,A*57
$GPRMC,060635.000,A,0120.4696,N,10343.3957,E,0.41,38.82,031115,,,A*58
$GPRMC,060636.000,A,0120.4697,N,10343.3956,E,0.41,38.82,031115,,,A*5B
$GPRMC,060637.000,A,0120.4696,N,10343.3955,E,0.37,38.82,031115,,,A*59
$GPRMC,060638.000,A,0120.4697,N,10343.3953,E,0.33,38.82,031115,,,A*55
$GPRMC,060639.000,A,0120.4697,N,10343.3953,E,0.28,38.82,031115,,,A*5E
$GPRMC,060640.000,A,0120.4698,N,10343.3953,E,0.23,38.82,031115,,,A*54
$GPRMC,060641.000,A,0120.4699,N,10343.3954,E,0.18,38.82,031115,,,A*5B
$GPRMC,060642.000,A,0120.4699,N,10343.3954,E,0.19,38.82,031115,,,A*59
$GPRMC,060643.000,A,0120.4700,N,10343.3954,E,0.37,38.82,031115,,,A*55
$GPRMC,060644.000,A,0120.4700,N,10343.3955,E,0.55,38.82,031115,,,A*57
$GPRMC,060645.000,A,0120.4701,N,10343.3956,E,0.60,51.09,031115,,,A*5E
$GPRMC,060646.000,A,0120.4702,N,10343.3959,E,0.65,54.45,031115,,,A*59
$GPRMC,060647.000,A,0120.4702,N,10343.3962,E,0.67,57.94,031115,,,A*5D
$GPRMC,060648.000,A,0120.4702,N,10343.3966,E,0.94,60.54,031115,,,A*52
$GPRMC,060649.000,A,0120.4704,N,10343.3970,E,1.00,57.81,031115,,,A*52
$GPRMC,060650.000,A,0120.4705,N,10343.3973,E,1.02,60.06,031115,,,A*51
$GPRMC,060651.000,A,0120.4704,N,10343.3979,E,1.02,70.16,031115,,,A*5B
$GPRMC,060652.000,A,0120.4701,N,10343.3986,E,1.03,85.52,031115,,,A*56
$GPRMC,060653.000,A,0120.4684,N,10343.4009,E,1.71,118.20,031115,,,A*67
$GPRMC,060654.000,A,0120.4686,N,10343.4017,E,1.39,113.09,031115,,,A*61
$GPRMC,060655.000,A,0120.4688,N,10343.4023,E,1.33,100.63,031115,,,A*6D
$GPRMC,060656.000,A,0120.4686,N,10343.4029,E,1.35,106.17,031115,,,A*69
$GPRMC,060657.000,A,0120.4684,N,10343.4034,E,1.39,112.36,031115,,,A*6C
$GPRMC,060658.000,A,0120.4684,N,10343.4038,E,1.44,113.65,031115,,,A*62
$GPRMC,060659.000,A,0120.4685,N,10343.4042,E,1.45,109.63,031115,,,A*63
$GPRMC,060700.000,A,0120.4685,N,10343.4046,E,1.46,106.44,031115,,,A*63
$GPRMC,060701.000,A,0120.4685,N,10343.4050,E,1.46,105.75,031115,,,A*64
$GPRMC,060702.000,A,0120.4686,N,10343.4056,E,1.50,95.79,031115,,,A*51
$GPRMC,060703.000,A,0120.4688,N,10343.4059,E,1.54,86.59,031115,,,A*55
$GPRMC,060704.000,A,0120.4692,N,10343.4061,E,1.56,75.81,031115,,,A*59
$GPRMC,060705.000,A,0120.4694,N,10343.4063,E,1.55,71.18,031115,,,A*5B
$GPRMC,060706.000,A,0120.4698,N,10343.4060,E,1.26,56.13,031115,,,A*5D
$GPRMC,060707.000,A,0120.4703,N,10343.4060,E,1.22,48.69,031115,,,A*59
$GPRMC,060708.000,A,0120.4707,N,10343.4061,E,1.23,40.58,031115,,,A*58
$GPRMC,060709.000,A,0120.4711,N,10343.4061,E,1.23,34.14,031115,,,A*55
$GPRMC,060710.000,A,0120.4715,N,10343.4062,E,1.18,32.70,031115,,,A*56
$GPRMC,060711.000,A,0120.4718,N,10343.4062,E,1.14,27.05,031115,,,A*50
$GPRMC,060712.000,A,0120.4720,N,10343.4062,E,1.10,24.37,031115,,,A*5E
$GPRMC,060713.000,A,0120.4724,N,10343.4063,E,1.05,24.65,031115,,,A*59
$GPRMC,060714.000,A,0120.4730,N,10343.4064,E,1.28,19.79,031115,,,A*50
$GPRMC,060715.000,A,0120.4738,N,10343.4067,E,1.69,15.76,031115,,,A*5C
$GPRMC,060716.000,A,0120.4743,N,10343.4069,E,1.71,15.74,031115,,,A*56
$GPRMC,060717.000,A,0120.4748,N,10343.4072,E,1.69,18.82,031115,,,A*5B
$GPRMC,060718.000,A,0120.4752,N,10343.4073,E,1.63,20.31,031115,,,A*57
$GPRMC,060719.000,A,0120.4757,N,10343.4076,E,1.60,21.57,031115,,,A*54
$GPRMC,060720.000,A,0120.4764,N,10343.4078,E,1.65,21.04,031115,,,A*53
$GPRMC,060721.000,A,0120.4768,N,10343.4080,E,1.64,21.75,031115,,,A*5E
$GPRMC,060722.000,A,0120.4771,N,10343.4076,E,1.63,18.48,031115,,,A*5F
$GPRMC,060723.000,A,0120.4774,N,10343.4076,E,1.61,19.49,031115,,,A*59
$GPRMC,060724.000,A,0120.4777,N,10343.4078,E,1.44,21.90,031115,,,A*5B
$GPRMC,060725.000,A,0120.4775,N,10343.4082,E,1.26,30.89,031115,,,A*51
$GPRMC,060726.000,A,0120.4777,N,10343.4086,E,1.29,35.65,031115,,,A*5C
$GPRMC,060727.000,A,0120.4779,N,10343.4089,E,1.32,44.97,031115,,,A*5D
$GPRMC,060728.000,A,0120.4781,N,10343.4094,E,1.63,49.66,031115,,,A*5E
$GPRMC,060729.000,A,0120.4785,N,10343.4098,E,1.65,50.09,031115,,,A*50
$GPRMC,060730.000,A,0120.4786,N,10343.4099,E,1.59,52.14,031115,,,A*5B
$GPRMC,060731.000,A,0120.4788,N,10343.4102,E,1.53,51.69,031115,,,A*54
$GPRMC,060732.000,A,0120.4792,N,10343.4104,E,1.50,48.61,031115,,,A*59
$GPRMC,060733.000,A,0120.4796,N,10343.4108,E,1.50,46.74,031115,,,A*5A
$GPRMC,060734.000,A,0120.4797,N,10343.4108,E,1.28,48.06,031115,,,A*58
$GPRMC,060735.000,A,0120.4800,N,10343.4110,E,1.30,47.12,031115,,,A*52
$GPRMC,060736.000,A,0120.4804,N,10343.4112,E,1.32,40.75,031115,,,A*53
$GPRMC,060737.000,A,0120.4808,N,10343.4115,E,1.33,40.21,031115,,,A*59
$GPRMC,060738.000,A,0120.4811,N,10343.4118,E,1.33,34.14,031115,,,A*56
$GPRMC,060739.000,A,0120.4817,N,10343.4118,E,1.32,20.74,031115,,,A*53
$GPRMC,060740.000,A,0120.4822,N,10343.4117,E,1.32,11.42,031115,,,A*53
$GPRMC,060741.000,A,0120.4827,N,10343.4116,E,1.33,3.08,031115,,,A*6A
$GPRMC,060742.000,A,0120.4832,N,10343.4115,E,1.36,1.27,031115,,,A*64
$GPRMC,060743.000,A,0120.4837,N,10343.4115,E,1.52,0.04,031115,,,A*62
$GPRMC,060744.000,A,0120.4843,N,10343.4114,E,1.55,0.41,031115,,,A*61
$GPRMC,060745.000,A,0120.4848,N,10343.4114,E,1.58,1.31,031115,,,A*60
$GPRMC,060746.000,A,0120.4852,N,10343.4116,E,1.60,9.93,031115,,,A*61
$GPRMC,060747.000,A,0120.4856,N,10343.4117,E,1.60,12.14,031115,,,A*50
$GPRMC,060748.000,A,0120.4857,N,10343.4124,E,1.58,31.44,031115,,,A*51
$GPRMC,060749.000,A,0120.4859,N,10343.4128,E,1.59,42.98,031115,,,A*56
$GPRMC,060750.000,A,0120.4864,N,10343.4128,E,1.57,42.95,031115,,,A*53
$GPRMC,060751.000,A,0120.4868,N,10343.4128,E,1.34,43.27,031115,,,A*53
$GPRMC,060752.000,A,0120.4872,N,10343.4127,E,1.30,38.72,031115,,,A*5C
$GPRMC,060753.000,A,0120.4875,N,10343.4128,E,1.26,35.34,031115,,,A*5D
$GPRMC,060754.000,A,0120.4877,N,10343.4128,E,1.19,35.46,031115,,,A*51
$GPRMC,060755.000,A,0120.4879,N,10343.4128,E,0.96,36.56,031115,,,A*5A
$GPRMC,060756.000,A,0120.4881,N,10343.4129,E,0.93,36.95,031115,,,A*55
$GPRMC,060757.000,A,0120.4883,N,10343.4129,E,0.87,34.44,031115,,,A*5D
$GPRMC,060758.000,A,0120.4882,N,10343.4131,E,0.56,34.44,031115,,,A*56
$GPRMC,060759.000,A,0120.4883,N,10343.4131,E,0.53,34.44,031115,,,A*53
$GPRMC,060800.000,A,0120.4884,N,10343.4132,E,0.49,34.44,031115,,,A*5F
$GPRMC,060801.000,A,0120.4885,N,10343.4132,E,0.28,34.44,031115,,,A*58
$GPRMC,060802.000,A,0120.4885,N,10343.4133,E,0.23,34.44,031115,,,A*51
$GPRMC,060803.000,A,0120.4885,N,10343.4133,E,0.13,34.44,031115,,,A*53
$GPRMC,060804.000,A,0120.4886,N,10343.4133,E,0.03,34.44,031115,,,A*56
$GPRMC,060805.000,A,0120.4886,N,10343.4133,E,0.10,34.44,031115,,,A*55
$GPRMC,060806.000,A,0120.4886,N,10343.4133,E,0.31,34.44,031115,,,A*55
$GPRMC,060807.000,A,0120.4885,N,10343.4132,E,0.44,34.44,031115,,,A*54
$GPRMC,060808.000,A,0120.4885,N,10343.4131,E,0.54,34.44,031115,,,A*59
$GPRMC,060809.000,A,0120.4885,N,10343.4129,E,0.55,34.44,031115,,,A*50
$GPRMC,060810.000,A,0120.4884,N,10343.4128,E,0.57,34.44,031115,,,A*5A
$GPRMC,060811.000,A,0120.4883,N,10343.4127,E,0.62,226.05,031115,,,A*61
$GPRMC,060812.000,A,0120.4881,N,10343.4125,E,0.61,220.55,031115,,,A*62
$GPRMC,060813.000,A,0120.4879,N,10343.4123,E,0.63,217.34,031115,,,A*63
$GPRMC,060814.000,A,0120.4876,N,10343.4121,E,0.65,217.99,031115,,,A*68
$GPRMC,060815.000,A,0120.4874,N,10343.4119,E,0.70,222.68,031115,,,A*6C
$GPRMC,060816.000,A,0120.4872,N,10343.4117,E,0.73,227.96,031115,,,A*60
$GPRMC,060817.000,A,0120.4870,N,10343.4115,E,0.75,227.93,031115,,,A*62
$GPRMC,060818.000,A,0120.4867,N,10343.4113,E,0.78,228.86,031115,,,A*6B
$GPRMC,060819.000,A,0120.4865,N,10343.4112,E,0.80,225.51,031115,,,A*69
$GPRMC,060820.000,A,0120.4862,N,10343.4111,E,0.81,219.80,031115,,,A*65
$GPRMC,060821.000,A,0120.4859,N,10343.4109,E,0.83,213.52,031115,,,A*62
$GPRMC,060822.000,A,0120.4856,N,10343.4109,E,0.83,211.00,031115,,,A*6B
$GPRMC,060823.000,A,0120.4852,N,10343.4108,E,0.83,204.05,031115,,,A*6E
$GPRMC,060824.000,A,0120.4851,N,10343.4106,E,0.81,205.58,031115,,,A*6F
$GPRMC,060825.000,A,0120.4849,N,10343.4106,E,0.64,195.63,031115,,,A*6E
$GPRMC,060826.000,A,0120.4848,N,10343.4109,E,0.58,195.63,031115,,,A*6C
$GPRMC,060827.000,A,0120.4847,N,10343.4112,E,0.64,128.87,031115,,,A*6B
$GPRMC,060828.000,A,0120.4847,N,10343.4114,E,0.81,117.39,031115,,,A*60
$GPRMC,060829.000,A,0120.4846,N,10343.4115,E,0.99,108.36,031115,,,A*69
$GPRMC,060830.000,A,0120.4846,N,10343.4117,E,1.01,104.84,031115,,,A*66
$GPRMC,060831.000,A,0120.4844,N,10343.4121,E,1.21,103.72,031115,,,A*6C
$GPRMC,060832.000,A,0120.4843,N,10343.4125,E,1.26,104.05,031115,,,A*6C
$GPRMC,060833.000,A,0120.4840,N,10343.4130,E,1.58,108.42,031115,,,A*6C
$GPRMC,060834.000,A,0120.4837,N,10343.4133,E,1.40,124.64,031115,,,A*6B
$GPRMC,060835.000,A,0120.4832,N,10343.4135,E,1.45,149.03,031115,,,A*66
$GPRMC,060836.000,A,0120.4827,N,10343.4136,E,1.50,156.55,031115,,,A*6B
$GPRMC,060837.000,A,0120.4823,N,10343.4137,E,1.55,171.88,031115,,,A*6F
$GPRMC,060838.000,A,0120.4819,N,10343.4138,E,1.54,175.17,031115,,,A*65
$GPRMC,060839.000,A,0120.4815,N,10343.4137,E,1.56,184.67,031115,,,A*6C
$GPRMC,060840.000,A,0120.4811,N,10343.4135,E,1.59,193.04,031115,,,A*68
$GPRMC,060841.000,A,0120.4809,N,10343.4132,E,1.57,200.89,031115,,,A*65
$GPRMC,060842.000,A,0120.4806,N,10343.4129,E,1.55,208.82,031115,,,A*62
$GPRMC,060843.000,A,0120.4806,N,10343.4127,E,1.51,216.30,031115,,,A*6F
$GPRMC,060844.000,A,0120.4806,N,10343.4121,E,1.48,226.49,031115,,,A*6B
$GPRMC,060845.000,A,0120.4806,N,10343.4117,E,1.43,236.04,031115,,,A*6C
$GPRMC,060846.000,A,0120.4807,N,10343.4113,E,1.39,241.11,031115,,,A*63
$GPRMC,060847.000,A,0120.4808,N,10343.4108,E,1.36,247.97,031115,,,A*60
$GPRMC,060848.000,A,0120.4809,N,10343.4102,E,1.38,254.33,031115,,,A*66
$GPRMC,060849.000,A,0120.4811,N,10343.4096,E,1.55,256.66,031115,,,A*6B
$GPRMC,060850.000,A,0120.4811,N,10343.4090,E,1.58,252.89,031115,,,A*6D
$GPRMC,060851.000,A,0120.4813,N,10343.4085,E,1.64,256.00,031115,,,A*60
$GPRMC,060852.000,A,0120.4812,N,10343.4081,E,1.65,250.57,031115,,,A*63
$GPRMC,060853.000,A,0120.4811,N,10343.4077,E,1.63,250.44,031115,,,A*6C
$GPRMC,060854.000,A,0120.4809,N,10343.4072,E,1.63,244.39,031115,,,A*68
$GPRMC,060855.000,A,0120.4809,N,10343.4067,E,1.61,245.91,031115,,,A*6C
$GPRMC,060856.000,A,0120.4807,N,10343.4063,E,1.58,247.19,031115,,,A*6D
$GPRMC,060857.000,A,0120.4806,N,10343.4059,E,1.54,246.33,031115,,,A*61
$GPRMC,060858.000,A,0120.4802,N,10343.4056,E,1.55,240.83,031115,,,A*69
$GPRMC,060859.000,A,0120.4801,N,10343.4050,E,1.58,243.47,031115,,,A*6B
$GPRMC,060900.000,A,0120.4798,N,10343.4048,E,1.61,239.73,031115,,,A*60
$GPRMC,060901.000,A,0120.4796,N,10343.4044,E,1.64,239.88,031115,,,A*62
$GPRMC,060902.000,A,0120.4791,N,10343.4043,E,1.66,234.93,031115,,,A*64
$GPRMC,060903.000,A,0120.4786,N,10343.4040,E,1.70,230.94,031115,,,A*64
$GPRMC,060904.000,A,0120.4780,N,10343.4038,E,1.73,227.01,031115,,,A*63
$GPRMC,060905.000,A,0120.4776,N,10343.4036,E,1.76,225.10,031115,,,A*62
$GPRMC,060906.000,A,0120.4772,N,10343.4034,E,1.73,224.03,031115,,,A*61
$GPRMC,060907.000,A,0120.4768,N,10343.4031,E,1.71,223.48,031115,,,A*64
$GPRMC,060908.000,A,0120.4762,N,10343.4027,E,1.88,221.23,031115,,,A*6F
$GPRMC,060909.000,A,0120.4757,N,10343.4025,E,1.90,219.03,031115,,,A*6A
$GPRMC,060910.000,A,0120.4753,N,10343.4022,E,1.89,218.01,031115,,,A*6A
$GPRMC,060911.000,A,0120.4750,N,10343.4020,E,1.84,218.75,031115,,,A*64
$GPRMC,060912.000,A,0120.4747,N,10343.4020,E,1.79,215.57,031115,,,A*6E
$GPRMC,060913.000,A,0120.4743,N,10343.4017,E,1.76,216.45,031115,,,A*60
$GPRMC,060914.000,A,0120.4738,N,10343.4016,E,1.74,212.95,031115,,,A*61
$GPRMC,060915.000,A,0120.4736,N,10343.4016,E,1.50,211.46,031115,,,A*65
$GPRMC,060916.000,A,0120.4734,N,10343.4012,E,1.30,218.04,031115,,,A*69
$GPRMC,060917.000,A,0120.4734,N,10343.4011,E,0.97,222.38,031115,,,A*61
$GPRMC,060918.000,A,0120.4734,N,10343.4011,E,0.53,222.38,031115,,,A*66
$GPRMC,060919.000,A,0120.4733,N,10343.4010,E,0.33,222.38,031115,,,A*67
$GPRMC,060920.000,A,0120.4733,N,10343.4010,E,0.27,222.38,031115,,,A*68
$GPRMC,060921.000,A,0120.4733,N,10343.4010,E,0.22,222.38,031115,,,A*6C
$GPRMC,060922.000,A,0120.4733,N,10343.4010,E,0.21,222.38,031115,,,A*6C
$GPRMC,060923.000,A,0120.4732,N,10343.4009,E,0.61,223.33,031115,,,A*6A
$GPRMC,060924.000,A,0120.4732,N,10343.4007,E,0.63,226.65,031115,,,A*67
$GPRMC,060925.000,A,0120.4730,N,10343.4005,E,0.85,229.24,031115,,,A*64
$GPRMC,060926.000,A,0120.4730,N,10343.4000,E,1.11,237.11,031115,,,A*67
$GPRMC,060927.000,A,0120.4729,N,10343.3997,E,1.15,235.93,031115,,,A*62
$GPRMC,060928.000,A,0120.4726,N,10343.3992,E,1.59,234.74,031115,,,A*67
$GPRMC,060929.000,A,0120.4724,N,10343.3988,E,1.65,236.73,031115,,,A*65
$GPRMC,060930.000,A,0120.4722,N,10343.3983,E,1.81,239.65,031115,,,A*62
$GPRMC,060931.000,A,0120.4720,N,10343.3978,E,1.86,241.91,031115,,,A*66
$GPRMC,060932.000,A,0120.4719,N,10343.3972,E,1.89,243.16,031115,,,A*67
$GPRMC,060933.000,A,0120.4716,N,10343.3968,E,1.92,243.35,031115,,,A*69
$GPRMC,060934.000,A,0120.4714,N,10343.3963,E,1.92,243.41,031115,,,A*64
$GPRMC,060935.000,A,0120.4712,N,10343.3958,E,1.91,243.85,031115,,,A*60
$GPRMC,060936.000,A,0120.4710,N,10343.3953,E,1.92,243.74,031115,,,A*67
$GPRMC,060937.000,A,0120.4707,N,10343.3949,E,1.92,242.15,031115,,,A*6D
$GPRMC,060938.000,A,0120.4703,N,10343.3946,E,1.92,238.82,031115,,,A*6A
$GPRMC,060939.000,A,0120.4699,N,10343.3943,E,1.91,236.45,031115,,,A*6A
$GPRMC,060940.000,A,0120.4695,N,10343.3939,E,1.91,235.57,031115,,,A*65
$GPRMC,060941.000,A,0120.4690,N,10343.3936,E,1.90,233.39,031115,,,A*61
$GPRMC,060942.000,A,0120.4688,N,10343.3932,E,1.87,235.72,031115,,,A*60
$GPRMC,060943.000,A,0120.4689,N,10343.3930,E,1.67,239.04,031115,,,A*61
$GPRMC,060944.000,A,0120.4689,N,10343.3929,E,1.60,241.77,031115,,,A*62
$GPRMC,060945.000,A,0120.4689,N,10343.3929,E,1.37,243.77,031115,,,A*63
$GPRMC,060946.000,A,0120.4689,N,10343.3928,E,1.30,246.37,031115,,,A*67
$GPRMC,060947.000,A,0120.4691,N,10343.3928,E,1.08,250.00,031115,,,A*67
$GPRMC,060948.000,A,0120.4693,N,10343.3929,E,1.02,254.21,031115,,,A*66
$GPRMC,060949.000,A,0120.4696,N,10343.3927,E,0.95,258.42,031115,,,A*6A
$GPRMC,060950.000,A,0120.4697,N,10343.3929,E,0.76,260.14,031115,,,A*68
$GPRMC,060951.000,A,0120.4699,N,10343.3934,E,0.69,266.65,031115,,,A*65
$GPRMC,060952.000,A,0120.4705,N,10343.3940,E,0.45,266.65,031115,,,A*6F
$GPRMC,060953.000,A,0120.4708,N,10343.3945,E,0.39,266.65,031115,,,A*6D
$GPRMC,060954.000,A,0120.4711,N,10343.3949,E,0.38,266.65,031115,,,A*6F
$GPRMC,060955.000,A,0120.4718,N,10343.3955,E,0.59,3.21,031115,,,A*6C
$GPRMC,060956.000,A,0120.4716,N,10343.3956,E,0.54,3.21,031115,,,A*6F
$GPRMC,060957.000,A,0120.4718,N,10343.3960,E,0.51,3.21,031115,,,A*60
$GPRMC,060958.000,A,0120.4724,N,10343.3966,E,0.72,36.57,031115,,,A*50
$GPRMC,060959.000,A,0120.4729,N,10343.3967,E,0.75,32.68,031115,,,A*52
$GPRMC,061000.000,A,0120.4756,N,10343.3974,E,1.00,23.33,031115,,,A*51
$GPRMC,061001.000,A,0120.4760,N,10343.3970,E,0.99,15.45,031115,,,A*54
$GPRMC,061002.000,A,0120.4765,N,10343.3971,E,1.01,13.09,031115,,,A*5D
$GPRMC,061003.000,A,0120.4769,N,10343.3974,E,1.02,11.70,031115,,,A*5A
$GPRMC,061004.000,A,0120.4775,N,10343.3973,E,1.05,4.61,031115,,,A*64
$GPRMC,061005.000,A,0120.4782,N,10343.3976,E,1.21,1.15,031115,,,A*68
$GPRMC,061006.000,A,0120.4797,N,10343.3971,E,1.27,346.35,031115,,,A*6C
$GPRMC,061007.000,A,0120.4807,N,10343.3969,E,1.45,343.28,031115,,,A*6F
$GPRMC,061008.000,A,0120.4818,N,10343.3966,E,1.61,342.67,031115,,,A*6D
$GPRMC,061009.000,A,0120.4823,N,10343.3959,E,1.62,340.29,031115,,,A*63
$GPRMC,061010.000,A,0120.4831,N,10343.3956,E,1.65,340.32,031115,,,A*6A
$GPRMC,061011.000,A,0120.4840,N,10343.3952,E,1.69,339.94,031115,,,A*67
$GPRMC,061012.000,A,0120.4848,N,10343.3949,E,1.75,340.54,031115,,,A*69
$GPRMC,061013.000,A,0120.4858,N,10343.3946,E,1.82,340.51,031115,,,A*6B
$GPRMC,061014.000,A,0120.4868,N,10343.3946,E,1.86,339.41,031115,,,A*64
$GPRMC,061015.000,A,0120.4876,N,10343.3945,E,1.91,338.99,031115,,,A*6B
$GPRMC,061016.000,A,0120.4883,N,10343.3944,E,1.96,338.43,031115,,,A*63
$GPRMC,061017.000,A,0120.4890,N,10343.3941,E,1.99,337.75,031115,,,A*60
$GPRMC,061018.000,A,0120.4899,N,10343.3939,E,2.00,336.60,031115,,,A*6F
$GPRMC,061019.000,A,0120.4907,N,10343.3943,E,2.00,336.56,031115,,,A*60
$GPRMC,061020.000,A,0120.4912,N,10343.3944,E,2.01,334.05,031115,,,A*6C
$GPRMC,061021.000,A,0120.4918,N,10343.3942,E,2.01,330.96,031115,,,A*6F
$GPRMC,061022.000,A,0120.4926,N,10343.3941,E,2.05,334.05,031115,,,A*68
$GPRMC,061023.000,A,0120.4930,N,10343.3938,E,2.08,336.39,031115,,,A*60
$GPRMC,061024.000,A,0120.4932,N,10343.3942,E,2.07,339.16,031115,,,A*65
$GPRMC,061025.000,A,0120.4933,N,10343.3945,E,1.85,341.67,031115,,,A*62
$GPRMC,061026.000,A,0120.4934,N,10343.3950,E,1.78,346.23,031115,,,A*67
$GPRMC,061027.000,A,0120.4938,N,10343.3954,E,1.71,352.38,031115,,,A*68
$GPRMC,061028.000,A,0120.4936,N,10343.3967,E,1.41,10.07,031115,,,A*53
$GPRMC,061029.000,A,0120.4935,N,10343.3972,E,1.23,18.49,031115,,,A*53
$GPRMC,061030.000,A,0120.4925,N,10343.3975,E,0.83,38.81,031115,,,A*50
$GPRMC,061031.000,A,0120.4922,N,10343.3975,E,0.59,58.04,031115,,,A*5A
$GPRMC,061032.000,A,0120.4909,N,10343.3973,E,0.88,245.67,031115,,,A*61
$GPRMC,061033.000,A,0120.4910,N,10343.3973,E,0.65,258.68,031115,,,A*68
$GPRMC,061034.000,A,0120.4908,N,10343.3974,E,0.58,258.68,031115,,,A*6F
$GPRMC,061035.000,A,0120.4908,N,10343.3973,E,0.41,258.68,031115,,,A*61
$GPRMC,061036.000,A,0120.4908,N,10343.3972,E,0.38,258.68,031115,,,A*6D
$GPRMC,061037.000,A,0120.4909,N,10343.3970,E,0.35,258.68,031115,,,A*62
$GPRMC,061038.000,A,0120.4908,N,10343.3969,E,0.35,258.68,031115,,,A*64
$GPRMC,061039.000,A,0120.4908,N,10343.3968,E,0.25,258.68,031115,,,A*65
$GPRMC,061040.000,A,0120.4907,N,10343.3968,E,0.22,258.68,031115,,,A*63
$GPRMC,061041.000,A,0120.4907,N,10343.3967,E,0.23,258.68,031115,,,A*6C
$GPRMC,061042.000,A,0120.4907,N,10343.3967,E,0.28,258.68,031115,,,A*64
$GPRMC,061043.000,A,0120.4906,N,10343.3966,E,0.28,258.68,031115,,,A*65
$GPRMC,061044.000,A,0120.4906,N,10343.3965,E,0.31,258.68,031115,,,A*69
$GPRMC,061045.000,A,0120.4905,N,10343.3965,E,0.53,258.68,031115,,,A*6F
$GPRMC,061046.000,A,0120.4905,N,10343.3963,E,0.97,240.93,031115,,,A*6F
$GPRMC,061047.000,A,0120.4903,N,10343.3959,E,1.28,245.63,031115,,,A*6E
$GPRMC,061048.000,A,0120.4900,N,10343.3954,E,1.51,240.78,031115,,,A*6E
$GPRMC,061049.000,A,0120.4897,N,10343.3950,E,1.55,237.96,031115,,,A*60
$GPRMC,061050.000,A,0120.4893,N,10343.3947,E,1.60,232.92,031115,,,A*6D
$GPRMC,061051.000,A,0120.4888,N,10343.3945,E,1.64,223.61,031115,,,A*6C
$GPRMC,061052.000,A,0120.4885,N,10343.3943,E,1.62,213.14,031115,,,A*63
$GPRMC,061053.000,A,0120.4873,N,10343.3992,E,3.70,111.14,031115,,,A*67
$GPRMC,061054.000,A,0120.4869,N,10343.4000,E,4.46,131.44,031115,,,A*6B
$GPRMC,061055.000,A,0120.4852,N,10343.4007,E,5.41,143.31,031115,,,A*64
$GPRMC,061056.000,A,0120.4832,N,10343.4010,E,6.16,161.10,031115,,,A*65
$GPRMC,061057.000,A,0120.4809,N,10343.4004,E,5.22,185.77,031115,,,A*66
$GPRMC,061058.000,A,0120.4797,N,10343.4003,E,2.39,159.98,031115,,,A*6B
$GPRMC,061059.000,A,0120.4774,N,10343.4009,E,10.15,167.26,031115,,,A*58
$GPRMC,061100.000,A,0120.4753,N,10343.4015,E,8.91,153.72,031115,,,A*6E
$GPRMC,061101.000,A,0120.4730,N,10343.4024,E,10.10,158.21,031115,,,A*55
$GPRMC,061102.000,A,0120.4714,N,10343.4028,E,7.24,170.65,031115,,,A*67
$GPRMC,061103.000,A,0120.4699,N,10343.4030,E,6.18,168.86,031115,,,A*61
$GPRMC,061104.000,A,0120.4691,N,10343.4031,E,5.47,176.95,031115,,,A*6B
$GPRMC,061105.000,A,0120.4682,N,10343.4032,E,4.61,175.21,031115,,,A*62
$GPRMC,061106.000,A,0120.4675,N,10343.4032,E,4.06,175.79,031115,,,A*65
$GPRMC,061107.000,A,0120.4669,N,10343.4032,E,3.63,182.61,031115,,,A*6C
$GPRMC,061108.000,A,0120.4665,N,10343.4032,E,3.19,179.11,031115,,,A*61
$GPRMC,061109.000,A,0120.4660,N,10343.4033,E,2.80,179.11,031115,,,A*65
$GPRMC,061110.000,A,0120.4656,N,10343.4033,E,2.80,179.11,031115,,,A*68
$GPRMC,061111.000,A,0120.4653,N,10343.4033,E,0.13,179.11,031115,,,A*64
$GPRMC,061112.000,A,0120.4655,N,10343.4036,E,0.12,179.11,031115,,,A*65
$GPRMC,061113.000,A,0120.4657,N,10343.4041,E,0.14,179.11,031115,,,A*60
$GPRMC,061114.000,A,0120.4658,N,10343.4045,E,0.16,179.11,031115,,,A*6E
$GPRMC,061115.000,A,0120.4654,N,10343.4044,E,0.17,179.11,031115,,,A*63
$GPRMC,061116.000,A,0120.4649,N,10343.4044,E,0.17,179.11,031115,,,A*6C
$GPRMC,061117.000,A,0120.4644,N,10343.4044,E,0.17,179.11,031115,,,A*60
$GPRMC,061118.000,A,0120.4640,N,10343.4043,E,0.00,179.11,031115,,,A*6A
$GPRMC,061119.000,A,0120.4640,N,10343.4043,E,0.00,179.11,031115,,,A*6B
$GPRMC,061120.000,A,0120.4640,N,10343.4043,E,0.00,179.11,031115,,,A*61
$GPRMC,061121.000,A,0120.4640,N,10343.4043,E,0.00,179.11,031115,,,A*60
$GPRMC,061122.000,A,0120.4639,N,10343.4043,E,0.07,179.11,031115,,,A*6A
$GPRMC,061123.000,A,0120.4637,N,10343.4042,E,0.00,179.11,031115,,,A*63
$GPRMC,061124.000,A,0120.4637,N,10343.4042,E,0.00,179.11,031115,,,A*64
$GPRMC,061125.000,A,0120.4637,N,10343.4041,E,0.05,179.11,031115,,,A*63
$GPRMC,061126.000,A,0120.4636,N,10343.4041,E,0.05,179.11,031115,,,A*61
$GPRMC,061127.000,A,0120.4635,N,10343.4040,E,0.05,179.11,031115,,,A*62
$GPRMC,061128.000,A,0120.4633,N,10343.4039,E,0.05,179.11,031115,,,A*65
$GPRMC,061129.000,A,0120.4632,N,10343.4038,E,0.00,179.11,031115,,,A*61
$GPRMC,061130.000,A,0120.4632,N,10343.4038,E,0.00,179.11,031115,,,A*69
$GPRMC,061131.000,A,0120.4632,N,10343.4038,E,0.00,179.11,031115,,,A*68
$GPRMC,061132.000,A,0120.4632,N,10343.4038,E,0.00,179.11,031115,,,A*6B
$GPRMC,061133.000,A,0120.4632,N,10343.4038,E,0.00,179.11,031115,,,A*6A
$GPRMC,061134.000,A,0120.4632,N,10343.4038,E,0.00,179.11,031115,,,A*6D
$GPRMC,061135.000,A,0120.4632,N,10343.4038,E,0.00,179.11,031115,,,A*6C
$GPRMC,061136.000,A,0120.4632,N,10343.4038,E,0.00,179.11,031115,,,A*6F
$GPRMC,061137.000,A,0120.4632,N,10343.4037,E,0.03,179.11,031115,,,A*62
$GPRMC,061138.000,A,0120.4632,N,10343.4037,E,0.04,179.11,031115,,,A*6A
$GPRMC,061139.000,A,0120.4631,N,10343.4036,E,0.04,179.11,031115,,,A*69
$GPRMC,061140.000,A,0120.4631,N,10343.4035,E,0.03,179.11,031115,,,A*63
$GPRMC,061141.000,A,0120.4630,N,10343.4034,E,0.04,179.11,031115,,,A*65
$GPRMC,061142.000,A,0120.4630,N,10343.4033,E,0.00,179.11,031115,,,A*65
$GPRMC,061143.000,A,0120.4630,N,10343.4033,E,0.00,179.11,031115,,,A*64
$GPRMC,061144.000,A,0120.4630,N,10343.4033,E,0.00,179.11,031115,,,A*63
$GPRMC,061145.000,A,0120.4630,N,10343.4033,E,0.00,179.11,031115,,,A*62
$GPRMC,061146.000,A,0120.4630,N,10343.4033,E,0.00,179.11,031115,,,A*61
$GPRMC,061147.000,A,0120.4630,N,10343.4033,E,0.00,179.11,031115,,,A*60
$GPRMC,061148.000,A,0120.4630,N,10343.4033,E,0.00,179.11,031115,,,A*6F
$GPRMC,061149.000,A,0120.4630,N,10343.4033,E,0.02,179.11,031115,,,A*6C
$GPRMC,061150.000,A,0120.4630,N,10343.4033,E,0.04,179.11,031115,,,A*62
$GPRMC,061151.000,A,0120.4631,N,10343.4033,E,0.07,179.11,031115,,,A*61
$GPRMC,061152.000,A,0120.4631,N,10343.4033,E,0.16,179.11,031115,,,A*62
$GPRMC,061153.000,A,0120.4631,N,10343.4032,E,0.00,179.11,031115,,,A*65
$GPRMC,061154.000,A,0120.4631,N,10343.4032,E,0.00,179.11,031115,,,A*62
$GPRMC,061155.000,A,0120.4631,N,10343.4032,E,0.21,179.11,031115,,,A*60
$GPRMC,061156.000,A,0120.4631,N,10343.4032,E,0.31,179.11,031115,,,A*62
$GPRMC,061157.000,A,0120.4630,N,10343.4031,E,0.47,179.11,031115,,,A*60
$GPRMC,061158.000,A,0120.4629,N,10343.4030,E,0.53,179.11,031115,,,A*63
$GPRMC,061159.000,A,0120.4628,N,10343.4029,E,0.00,179.11,031115,,,A*6D
$GPRMC,061200.000,A,0120.4628,N,10343.4029,E,0.00,179.11,031115,,,A*62
$GPRMC,061201.000,A,0120.4628,N,10343.4028,E,0.00,179.11,031115,,,A*62
$GPRMC,061202.000,A,0120.4628,N,10343.4028,E,0.00,179.11,031115,,,A*61
$GPRMC,061203.000,A,0120.4628,N,10343.4028,E,0.14,179.11,031115,,,A*65
$GPRMC,061204.000,A,0120.4628,N,10343.4028,E,0.00,179.11,031115,,,A*67
$GPRMC,061205.000,A,0120.4628,N,10343.4028,E,0.00,179.11,031115,,,A*66
$GPRMC,061206.000,A,0120.4628,N,10343.4028,E,0.00,179.11,031115,,,A*65
$GPRMC,061207.000,A,0120.4627,N,10343.4028,E,0.00,179.11,031115,,,A*6B
$GPRMC,061208.000,A,0120.4627,N,10343.4027,E,0.00,179.11,031115,,,A*6B
$GPRMC,061209.000,A,0120.4627,N,10343.4027,E,0.00,179.11,031115,,,A*6A
$GPRMC,061210.000,A,0120.4627,N,10343.4027,E,0.00,179.11,031115,,,A*62
$GPRMC,061211.000,A,0120.4627,N,10343.4027,E,0.00,179.11,031115,,,A*63
$GPRMC,061212.000,A,0120.4626,N,10343.4027,E,0.41,179.11,031115,,,A*64
$GPRMC,061213.000,A,0120.4625,N,10343.4026,E,0.00,179.11,031115,,,A*62
$GPRMC,061214.000,A,0120.4625,N,10343.4026,E,0.00,179.11,031115,,,A*65
$GPRMC,061215.000,A,0120.4625,N,10343.4026,E,0.00,179.11,031115,,,A*64
$GPRMC,061216.000,A,0120.4626,N,10343.4026,E,0.00,179.11,031115,,,A*64
$GPRMC,061217.000,A,0120.4625,N,10343.4026,E,0.00,179.11,031115,,,A*66
$GPRMC,061218.000,A,0120.4625,N,10343.4026,E,0.00,179.11,031115,,,A*69
$GPRMC,061219.000,A,0120.4626,N,10343.4026,E,0.00,179.11,031115,,,A*6B
$GPRMC,061220.000,A,0120.4626,N,10343.4026,E,0.00,179.11,031115,,,A*61
$GPRMC,061221.000,A,0120.4626,N,10343.4026,E,0.00,179.11,031115,,,A*60
$GPRMC,061222.000,A,0120.4626,N,10343.4026,E,0.00,179.11,031115,,,A*63
$GPRMC,061223.000,A,0120.4626,N,10343.4026,E,0.00,179.11,031115,,,A*62
$GPRMC,061224.000,A,0120.4625,N,10343.4026,E,0.44,179.11,031115,,,A*66
$GPRMC,061225.000,A,0120.4624,N,10343.4025,E,0.53,179.11,031115,,,A*63
$GPRMC,061226.000,A,0120.4623,N,10343.4024,E,0.52,179.11,031115,,,A*67
$GPRMC,061227.000,A,0120.4623,N,10343.4023,E,0.00,179.11,031115,,,A*66
$GPRMC,061228.000,A,0120.4623,N,10343.4023,E,0.00,179.11,031115,,,A*69
$GPRMC,061229.000,A,0120.4623,N,10343.4023,E,0.00,179.11,031115,,,A*68
$GPRMC,061230.000,A,0120.4623,N,10343.4022,E,0.00,179.11,031115,,,A*61
$GPRMC,061231.000,A,0120.4623,N,10343.4022,E,0.30,179.11,031115,,,A*63
$GPRMC,061232.000,A,0120.4624,N,10343.4021,E,0.28,179.11,031115,,,A*6D
$GPRMC,061233.000,A,0120.4625,N,10343.4021,E,0.30,179.11,031115,,,A*64
$GPRMC,061234.000,A,0120.4625,N,10343.4020,E,0.27,179.11,031115,,,A*64
$GPRMC,061235.000,A,0120.4626,N,10343.4020,E,0.34,179.11,031115,,,A*64
$GPRMC,061236.000,A,0120.4626,N,10343.4019,E,0.00,179.11,031115,,,A*6A
$GPRMC,061237.000,A,0120.4626,N,10343.4019,E,0.00,179.11,031115,,,A*6B
$GPRMC,061238.000,A,0120.4626,N,10343.4019,E,0.00,179.11,031115,,,A*64
$GPRMC,061239.000,A,0120.4626,N,10343.4019,E,0.00,179.11,031115,,,A*65
$GPRMC,061240.000,A,0120.4626,N,10343.4019,E,0.07,179.11,031115,,,A*6C
$GPRMC,061241.000,A,0120.4626,N,10343.4019,E,0.15,179.11,031115,,,A*6E
$GPRMC,061242.000,A,0120.4627,N,10343.4018,E,0.00,179.11,031115,,,A*69
$GPRMC,061243.000,A,0120.4627,N,10343.4018,E,0.00,179.11,031115,,,A*68
$GPRMC,061244.000,A,0120.4627,N,10343.4018,E,0.00,179.11,031115,,,A*6F
$GPRMC,061245.000,A,0120.4627,N,10343.4018,E,0.00,179.11,031115,,,A*6E
$GPRMC,061246.000,A,0120.4627,N,10343.4018,E,0.00,179.11,031115,,,A*6D
$GPRMC,061247.000,A,0120.4627,N,10343.4018,E,0.00,179.11,031115,,,A*6C
$GPRMC,061248.000,A,0120.4627,N,10343.4018,E,0.00,179.11,031115,,,A*63
$GPRMC,061249.000,A,0120.4627,N,10343.4018,E,0.00,179.11,031115,,,A*62
$GPRMC,061250.000,A,0120.4627,N,10343.4018,E,0.00,179.11,031115,,,A*6A
$GPRMC,061251.000,A,0120.4627,N,10343.4018,E,0.00,179.11,031115,,,A*6B
$GPRMC,061252.000,A,0120.4627,N,10343.4018,E,0.00,179.11,031115,,,A*68
$GPRMC,061253.000,A,0120.4627,N,10343.4018,E,0.00,179.11,031115,,,A*69
$GPRMC,061254.000,A,0120.4627,N,10343.4018,E,0.00,179.11,031115,,,A*6E
$GPRMC,061255.000,A,0120.4626,N,10343.4018,E,0.03,179.11,031115,,,A*6D
$GPRMC,061256.000,A,0120.4627,N,10343.4018,E,0.43,179.11,031115,,,A*6B
$GPRMC,061257.000,A,0120.4628,N,10343.4018,E,0.37,179.11,031115,,,A*66
$GPRMC,061258.000,A,0120.4629,N,10343.4018,E,0.21,179.11,031115,,,A*6F
$GPRMC,061259.000,A,0120.4630,N,10343.4018,E,0.28,179.11,031115,,,A*6F
$GPRMC,061300.000,A,0120.4630,N,10343.4018,E,0.35,179.11,031115,,,A*6E
$GPRMC,061301.000,A,0120.4631,N,10343.4017,E,0.34,179.11,031115,,,A*60
$GPRMC,061302.000,A,0120.4631,N,10343.4016,E,0.43,179.11,031115,,,A*62
$GPRMC,061303.000,A,0120.4631,N,10343.4015,E,0.34,179.11,031115,,,A*60
$GPRMC,061304.000,A,0120.4632,N,10343.4014,E,0.39,179.11,031115,,,A*68
$GPRMC,061305.000,A,0120.4632,N,10343.4013,E,0.44,179.11,031115,,,A*64
$GPRMC,061306.000,A,0120.4633,N,10343.4012,E,0.42,179.11,031115,,,A*61
$GPRMC,061307.000,A,0120.4634,N,10343.4012,E,0.38,179.11,031115,,,A*6A
$GPRMC,061308.000,A,0120.4635,N,10343.4011,E,0.38,179.11,031115,,,A*67
$GPRMC,061309.000,A,0120.4636,N,10343.4011,E,0.67,179.11,031115,,,A*6F
$GPRMC,061310.000,A,0120.4638,N,10343.4010,E,0.62,179.11,031115,,,A*6D
$GPRMC,061311.000,A,0120.4640,N,10343.4010,E,0.44,179.11,031115,,,A*67
$GPRMC,061312.000,A,0120.4641,N,10343.4010,E,0.28,179.11,031115,,,A*6F
$GPRMC,061313.000,A,0120.4642,N,10343.4010,E,0.18,179.11,031115,,,A*6E
$GPRMC,061314.000,A,0120.4643,N,10343.4010,E,0.00,179.11,031115,,,A*61
$GPRMC,061315.000,A,0120.4643,N,10343.4010,E,0.00,179.11,031115,,,A*60
$GPRMC,061316.000,A,0120.4643,N,10343.4010,E,0.00,179.11,031115,,,A*63
$GPRMC,061317.000,A,0120.4643,N,10343.4009,E,0.05,179.11,031115,,,A*6F
$GPRMC,061318.000,A,0120.4643,N,10343.4009,E,0.19,179.11,031115,,,A*6D
$GPRMC,061319.000,A,0120.4642,N,10343.4009,E,0.31,179.11,031115,,,A*67
$GPRMC,061320.000,A,0120.4642,N,10343.4009,E,0.20,179.11,031115,,,A*6D
$GPRMC,061321.000,A,0120.4641,N,10343.4009,E,0.02,179.11,031115,,,A*6F
$GPRMC,061322.000,A,0120.4641,N,10343.4009,E,0.00,179.11,031115,,,A*6E
$GPRMC,061323.000,A,0120.4641,N,10343.4009,E,0.00,179.11,031115,,,A*6F
$GPRMC,061324.000,A,0120.4641,N,10343.4009,E,0.00,179.11,031115,,,A*68
$GPRMC,061325.000,A,0120.4642,N,10343.4009,E,0.14,179.11,031115,,,A*6F
$GPRMC,061326.000,A,0120.4642,N,10343.4009,E,0.17,179.11,031115,,,A*6F
$GPRMC,061327.000,A,0120.4642,N,10343.4008,E,0.14,179.11,031115,,,A*6C
$GPRMC,061328.000,A,0120.4642,N,10343.4008,E,0.33,179.11,031115,,,A*66
$GPRMC,061329.000,A,0120.4643,N,10343.4007,E,0.35,179.11,031115,,,A*6F
$GPRMC,061330.000,A,0120.4643,N,10343.4006,E,0.20,179.11,031115,,,A*62
$GPRMC,061331.000,A,0120.4644,N,10343.4006,E,0.19,179.11,031115,,,A*6E
$GPRMC,061332.000,A,0120.4645,N,10343.4006,E,0.25,179.11,031115,,,A*63
$GPRMC,061333.000,A,0120.4645,N,10343.4006,E,0.26,179.11,031115,,,A*61
$GPRMC,061334.000,A,0120.4646,N,10343.4006,E,0.28,179.11,031115,,,A*6B
$GPRMC,061335.000,A,0120.4647,N,10343.4006,E,0.50,179.11,031115,,,A*64
$GPRMC,061336.000,A,0120.4648,N,10343.4006,E,0.61,179.11,031115,,,A*6A
$GPRMC,061337.000,A,0120.4650,N,10343.4006,E,0.49,179.11,031115,,,A*68
$GPRMC,061338.000,A,0120.4651,N,10343.4007,E,0.24,179.11,031115,,,A*6C
$GPRMC,061339.000,A,0120.4651,N,10343.4008,E,0.17,179.11,031115,,,A*62
$GPRMC,061340.000,A,0120.4651,N,10343.4008,E,0.10,179.11,031115,,,A*6B
$GPRMC,061341.000,A,0120.4651,N,10343.4008,E,0.18,179.11,031115,,,A*62
$GPRMC,061342.000,A,0120.4651,N,10343.4008,E,0.10,179.11,031115,,,A*69
$GPRMC,061343.000,A,0120.4650,N,10343.4008,E,0.11,179.11,031115,,,A*68
$GPRMC,061344.000,A,0120.4650,N,10343.4008,E,0.05,179.11,031115,,,A*6A
$GPRMC,061345.000,A,0120.4650,N,10343.4008,E,0.12,179.11,031115,,,A*6D
$GPRMC,061346.000,A,0120.4650,N,10343.4008,E,0.09,179.11,031115,,,A*64
$GPRMC,061347.000,A,0120.4650,N,10343.4007,E,0.17,179.11,031115,,,A*65
$GPRMC,061348.000,A,0120.4651,N,10343.4007,E,0.34,179.11,031115,,,A*6A
$GPRMC,061349.000,A,0120.4652,N,10343.4007,E,0.43,179.11,031115,,,A*68
$GPRMC,061350.000,A,0120.4653,N,10343.4007,E,0.33,179.11,031115,,,A*66
$GPRMC,061351.000,A,0120.4654,N,10343.4007,E,0.27,179.11,031115,,,A*65
$GPRMC,061352.000,A,0120.4655,N,10343.4007,E,0.25,179.11,031115,,,A*65
$GPRMC,061353.000,A,0120.4656,N,10343.4007,E,0.22,179.11,031115,,,A*60
$GPRMC,061354.000,A,0120.4656,N,10343.4006,E,0.22,179.11,031115,,,A*66
$GPRMC,061355.000,A,0120.4656,N,10343.4006,E,0.37,179.11,031115,,,A*63
$GPRMC,061356.000,A,0120.4655,N,10343.4005,E,0.44,179.11,031115,,,A*64
$GPRMC,061357.000,A,0120.4654,N,10343.4005,E,0.30,179.11,031115,,,A*67
$GPRMC,061358.000,A,0120.4653,N,10343.4005,E,0.21,179.11,031115,,,A*6F
$GPRMC,061359.000,A,0120.4652,N,10343.4004,E,0.17,179.11,031115,,,A*6B
$GPRMC,061400.000,A,0120.4653,N,10343.4004,E,0.19,179.11,031115,,,A*6F
$GPRMC,061401.000,A,0120.4653,N,10343.4003,E,0.69,179.11,031115,,,A*6E
$GPRMC,061402.000,A,0120.4655,N,10343.4003,E,0.84,179.11,031115,,,A*68
$GPRMC,061403.000,A,0120.4657,N,10343.4002,E,0.71,179.11,031115,,,A*60
$GPRMC,061404.000,A,0120.4659,N,10343.4001,E,0.44,179.11,031115,,,A*6C
$GPRMC,061405.000,A,0120.4660,N,10343.4001,E,0.32,179.11,031115,,,A*66
$GPRMC,061406.000,A,0120.4660,N,10343.4000,E,0.23,179.11,031115,,,A*64
$GPRMC,061407.000,A,0120.4661,N,10343.3999,E,0.17,179.11,031115,,,A*6D
$GPRMC,061408.000,A,0120.4661,N,10343.3999,E,0.20,179.11,031115,,,A*66
$GPRMC,061409.000,A,0120.4661,N,10343.3998,E,0.27,179.11,031115,,,A*61
$GPRMC,061410.000,A,0120.4661,N,10343.3997,E,0.59,179.11,031115,,,A*6F
$GPRMC,061411.000,A,0120.4662,N,10343.3996,E,0.59,179.11,031115,,,A*6C
$GPRMC,061412.000,A,0120.4663,N,10343.3995,E,0.60,179.11,031115,,,A*67
$GPRMC,061413.000,A,0120.4664,N,10343.3993,E,0.55,179.11,031115,,,A*61
$GPRMC,061414.000,A,0120.4664,N,10343.3992,E,0.54,179.11,031115,,,A*66
$GPRMC,061415.000,A,0120.4665,N,10343.3990,E,0.59,179.11,031115,,,A*69
$GPRMC,061416.000,A,0120.4666,N,10343.3989,E,0.66,179.11,031115,,,A*6D
$GPRMC,061417.000,A,0120.4667,N,10343.3988,E,0.56,179.11,031115,,,A*6F
$GPRMC,061418.000,A,0120.4668,N,10343.3986,E,0.48,179.11,031115,,,A*6E
$GPRMC,061419.000,A,0120.4668,N,10343.3985,E,0.00,179.11,031115,,,A*60
$GPRMC,061420.000,A,0120.4668,N,10343.3985,E,0.00,179.11,031115,,,A*6A
$GPRMC,061421.000,A,0120.4673,N,10343.3984,E,3.62,343.71,031115,,,A*6A
$GPRMC,061422.000,A,0120.4690,N,10343.3973,E,5.44,338.72,031115,,,A*61
$GPRMC,061423.000,A,0120.4702,N,10343.3956,E,6.95,314.88,031115,,,A*69
$GPRMC,061424.000,A,0120.4714,N,10343.3936,E,8.07,302.91,031115,,,A*65
$GPRMC,061425.000,A,0120.4732,N,10343.3919,E,8.63,305.24,031115,,,A*66
$GPRMC,061426.000,A,0120.4748,N,10343.3899,E,8.42,294.94,031115,,,A*60
$GPRMC,061427.000,A,0120.4764,N,10343.3877,E,9.68,304.88,031115,,,A*63
$GPRMC,061428.000,A,0120.4784,N,10343.3855,E,10.64,313.78,031115,,,A*5F
$GPRMC,061429.000,A,0120.4805,N,10343.3832,E,9.54,311.08,031115,,,A*67
$GPRMC,061430.000,A,0120.4823,N,10343.3812,E,9.17,310.59,031115,,,A*6B
$GPRMC,061431.000,A,0120.4840,N,10343.3790,E,9.48,307.01,031115,,,A*6B
$GPRMC,061432.000,A,0120.4858,N,10343.3768,E,9.17,302.54,031115,,,A*69
$GPRMC,061433.000,A,0120.4872,N,10343.3746,E,7.34,292.52,031115,,,A*6D
$GPRMC,061434.000,A,0120.4877,N,10343.3719,E,8.66,245.68,031115,,,A*6E
$GPRMC,061435.000,A,0120.4871,N,10343.3696,E,8.42,236.05,031115,,,A*66
$GPRMC,061436.000,A,0120.4863,N,10343.3674,E,8.42,250.05,031115,,,A*6A
$GPRMC,061437.000,A,0120.4869,N,10343.3652,E,6.44,284.56,031115,,,A*62
$GPRMC,061438.000,A,0120.4893,N,10343.3641,E,7.37,349.50,031115,,,A*69
$GPRMC,061439.000,A,0120.4917,N,10343.3648,E,11.18,34.18,031115,,,A*63
$GPRMC,061440.000,A,0120.4937,N,10343.3670,E,11.74,57.45,031115,,,A*63
$GPRMC,061441.000,A,0120.4948,N,10343.3700,E,13.52,68.66,031115,,,A*67
$GPRMC,061442.000,A,0120.4958,N,10343.3734,E,13.13,80.15,031115,,,A*65
$GPRMC,061443.000,A,0120.4951,N,10343.3764,E,10.46,102.71,031115,,,A*52
$GPRMC,061444.000,A,0120.4935,N,10343.3786,E,8.89,124.72,031115,,,A*66
$GPRMC,061445.000,A,0120.4920,N,10343.3803,E,8.33,128.32,031115,,,A*68
$GPRMC,061446.000,A,0120.4904,N,10343.3820,E,7.90,121.11,031115,,,A*62
$GPRMC,061447.000,A,0120.4894,N,10343.3840,E,7.87,99.32,031115,,,A*58
$GPRMC,061448.000,A,0120.4889,N,10343.3862,E,8.65,84.41,031115,,,A*50
$GPRMC,061449.000,A,0120.4880,N,10343.3881,E,7.87,94.15,031115,,,A*56
$GPRMC,061450.000,A,0120.4874,N,10343.3901,E,7.46,99.72,031115,,,A*5D
$GPRMC,061451.000,A,0120.4868,N,10343.3916,E,6.00,88.32,031115,,,A*50
$GPRMC,061452.000,A,0120.4866,N,10343.3927,E,5.04,87.48,031115,,,A*5A
$GPRMC,061453.000,A,0120.4854,N,10343.3921,E,2.09,87.48,031115,,,A*56
$GPRMC,061454.000,A,0120.4839,N,10343.3916,E,1.28,87.48,031115,,,A*5E
$GPRMC,061455.000,A,0120.4837,N,10343.3914,E,0.69,87.48,031115,,,A*57
$GPRMC,061456.000,A,0120.4836,N,10343.3913,E,0.65,87.48,031115,,,A*5E
$GPRMC,061457.000,A,0120.4832,N,10343.3910,E,0.37,87.48,031115,,,A*5F
$GPRMC,061458.000,A,0120.4832,N,10343.3911,E,0.34,87.48,031115,,,A*52
$GPRMC,061459.000,A,0120.4832,N,10343.3912,E,0.22,87.48,031115,,,A*57
$GPRMC,061500.000,A,0120.4833,N,10343.3912,E,0.20,87.48,031115,,,A*59
$GPRMC,061501.000,A,0120.4832,N,10343.3913,E,0.00,87.48,031115,,,A*5A
$GPRMC,061502.000,A,0120.4832,N,10343.3913,E,0.00,87.48,031115,,,A*59
$GPRMC,061503.000,A,0120.4832,N,10343.3912,E,0.14,87.48,031115,,,A*5C
$GPRMC,061504.000,A,0120.4832,N,10343.3912,E,0.19,87.48,031115,,,A*56
$GPRMC,061505.000,A,0120.4832,N,10343.3911,E,0.24,87.48,031115,,,A*5A
$GPRMC,061506.000,A,0120.4832,N,10343.3911,E,0.50,87.48,031115,,,A*5A
$GPRMC,061507.000,A,0120.4833,N,10343.3910,E,0.70,87.48,031115,,,A*59
$GPRMC,061508.000,A,0120.4834,N,10343.3908,E,0.58,87.48,031115,,,A*52
$GPRMC,061509.000,A,0120.4835,N,10343.3907,E,0.51,87.48,031115,,,A*54
$GPRMC,061510.000,A,0120.4836,N,10343.3906,E,0.37,87.48,031115,,,A*5E
$GPRMC,061511.000,A,0120.4837,N,10343.3905,E,0.31,87.48,031115,,,A*5B
$GPRMC,061512.000,A,0120.4838,N,10343.3905,E,0.22,87.48,031115,,,A*55
$GPRMC,061513.000,A,0120.4838,N,10343.3904,E,0.23,87.48,031115,,,A*54
$GPRMC,061514.000,A,0120.4839,N,10343.3904,E,0.19,87.48,031115,,,A*5B
$GPRMC,061515.000,A,0120.4839,N,10343.3903,E,0.11,87.48,031115,,,A*55
$GPRMC,061516.000,A,0120.4839,N,10343.3903,E,0.12,87.48,031115,,,A*55
$GPRMC,061517.000,A,0120.4840,N,10343.3903,E,0.17,87.48,031115,,,A*5F
$GPRMC,061518.000,A,0120.4840,N,10343.3903,E,0.20,87.48,031115,,,A*54
$GPRMC,061519.000,A,0120.4841,N,10343.3903,E,0.23,87.48,031115,,,A*57
$GPRMC,061520.000,A,0120.4841,N,10343.3902,E,0.20,87.48,031115,,,A*5F
$GPRMC,061521.000,A,0120.4841,N,10343.3902,E,0.58,87.48,031115,,,A*51
$GPRMC,061522.000,A,0120.4840,N,10343.3901,E,1.81,87.48,031115,,,A*55
$GPRMC,061523.000,A,0120.4835,N,10343.3900,E,2.45,87.48,031115,,,A*5C
$GPRMC,061524.000,A,0120.4823,N,10343.3904,E,3.06,155.92,031115,,,A*67
$GPRMC,061525.000,A,0120.4812,N,10343.3911,E,5.03,131.29,031115,,,A*61
$GPRMC,061526.000,A,0120.4796,N,10343.3926,E,7.42,132.47,031115,,,A*69
$GPRMC,061527.000,A,0120.4776,N,10343.3942,E,8.70,142.94,031115,,,A*63
$GPRMC,061528.000,A,0120.4754,N,10343.3952,E,7.89,153.69,031115,,,A*66
$GPRMC,061529.000,A,0120.4737,N,10343.3963,E,6.18,138.52,031115,,,A*6C
$GPRMC,061530.000,A,0120.4729,N,10343.3970,E,3.85,126.09,031115,,,A*69
$GPRMC,061531.000,A,0120.4724,N,10343.3976,E,2.75,125.57,031115,,,A*65
$GPRMC,061532.000,A,0120.4720,N,10343.3980,E,2.09,127.71,031115,,,A*66
$GPRMC,061533.000,A,0120.4714,N,10343.3982,E,1.43,119.31,031115,,,A*66
$GPRMC,061534.000,A,0120.4711,N,10343.3985,E,1.45,123.55,031115,,,A*6E
$GPRMC,061535.000,A,0120.4705,N,10343.3985,E,1.47,143.81,031115,,,A*67
$GPRMC,061536.000,A,0120.4701,N,10343.3986,E,1.48,148.17,031115,,,A*68
$GPRMC,061537.000,A,0120.4697,N,10343.3988,E,1.50,148.65,031115,,,A*65
$GPRMC,061538.000,A,0120.4692,N,10343.3990,E,1.56,151.47,031115,,,A*68
$GPRMC,061539.000,A,0120.4690,N,10343.3990,E,1.53,147.99,031115,,,A*6A
$GPRMC,061540.000,A,0120.4688,N,10343.3990,E,1.16,144.80,031115,,,A*67
$GPRMC,061541.000,A,0120.4687,N,10343.3987,E,0.43,144.80,031115,,,A*6E
$GPRMC,061542.000,A,0120.4684,N,10343.3987,E,0.41,144.80,031115,,,A*6C
$GPRMC,061543.000,A,0120.4681,N,10343.3986,E,0.40,144.80,031115,,,A*68
$GPRMC,061544.000,A,0120.4680,N,10343.3986,E,0.37,144.80,031115,,,A*6E
$GPRMC,061545.000,A,0120.4679,N,10343.3986,E,0.23,144.80,031115,,,A*6C
$GPRMC,061546.000,A,0120.4678,N,10343.3986,E,0.25,144.80,031115,,,A*68
$GPRMC,061547.000,A,0120.4677,N,10343.3986,E,0.10,144.80,031115,,,A*60
$GPRMC,061548.000,A,0120.4677,N,10343.3986,E,0.03,144.80,031115,,,A*6D
$GPRMC,061549.000,A,0120.4677,N,10343.3986,E,0.02,144.80,031115,,,A*6D
$GPRMC,061550.000,A,0120.4677,N,10343.3986,E,0.06,144.80,031115,,,A*61
$GPRMC,061551.000,A,0120.4677,N,10343.3986,E,0.03,144.80,031115,,,A*65
$GPRMC,061552.000,A,0120.4677,N,10343.3986,E,0.05,144.80,031115,,,A*60
$GPRMC,061553.000,A,0120.4677,N,10343.3986,E,0.15,144.80,031115,,,A*60
$GPRMC,061554.000,A,0120.4676,N,10343.3983,E,0.19,144.80,031115,,,D*6A
$GPRMC,061555.000,A,0120.4676,N,10343.3982,E,0.19,144.80,031115,,,D*6A
$GPRMC,061556.000,A,0120.4677,N,10343.3980,E,0.18,144.80,031115,,,D*6B
$GPRMC,061557.000,A,0120.4677,N,10343.3980,E,0.17,144.80,031115,,,D*65
$GPRMC,061558.000,A,0120.4678,N,10343.3979,E,0.17,144.80,031115,,,D*63
$GPRMC,061559.000,A,0120.4677,N,10343.3979,E,0.18,144.80,031115,,,D*62
$GPRMC,061600.000,A,0120.4678,N,10343.3978,E,0.18,144.80,031115,,,D*63
$GPRMC,061601.000,A,0120.4679,N,10343.3979,E,0.17,144.80,031115,,,D*6D
$GPRMC,061602.000,A,0120.4678,N,10343.3979,E,0.16,144.80,031115,,,D*6E
$GPRMC,061603.000,A,0120.4678,N,10343.3979,E,0.18,144.80,031115,,,D*61
$GPRMC,061604.000,A,0120.4678,N,10343.3979,E,0.19,144.80,031115,,,D*67
$GPRMC,061605.000,A,0120.4678,N,10343.3979,E,0.21,144.80,031115,,,D*6D
$GPRMC,061606.000,A,0120.4679,N,10343.3981,E,0.60,7.37,031115,,,D*67
$GPRMC,061607.000,A,0120.4681,N,10343.3982,E,0.81,12.70,031115,,,D*5A
$GPRMC,061608.000,A,0120.4684,N,10343.3983,E,0.81,13.49,031115,,,D*5A
$GPRMC,061609.000,A,0120.4685,N,10343.3983,E,0.78,15.29,031115,,,D*5C
$GPRMC,061610.000,A,0120.4688,N,10343.3984,E,0.81,17.26,031115,,,D*55
$GPRMC,061611.000,A,0120.4690,N,10343.3985,E,0.82,19.67,031115,,,D*54
$GPRMC,061612.000,A,0120.4692,N,10343.3987,E,0.81,23.46,031115,,,D*5E
$GPRMC,061613.000,A,0120.4691,N,10343.3994,E,0.80,40.48,031115,,,D*54
$GPRMC,061614.000,A,0120.4692,N,10343.4002,E,1.02,31.92,031115,,,D*5B
$GPRMC,061615.000,A,0120.4692,N,10343.4008,E,1.01,48.57,031115,,,D*54
$GPRMC,061616.000,A,0120.4692,N,10343.4019,E,1.65,77.10,031115,,,D*5A
$GPRMC,061617.000,A,0120.4697,N,10343.4032,E,2.74,65.31,031115,,,D*54
$GPRMC,061618.000,A,0120.4700,N,10343.4036,E,2.05,56.21,031115,,,D*57
$GPRMC,061619.000,A,0120.4700,N,10343.4041,E,1.54,51.76,031115,,,D*54
$GPRMC,061620.000,A,0120.4703,N,10343.4044,E,1.49,44.47,031115,,,D*52
$GPRMC,061621.000,A,0120.4706,N,10343.4047,E,1.46,40.24,031115,,,D*5B
$GPRMC,061622.000,A,0120.4709,N,10343.4052,E,1.94,45.84,031115,,,D*53
$GPRMC,061623.000,A,0120.4718,N,10343.4059,E,3.33,40.50,031115,,,D*5A
$GPRMC,061624.000,A,0120.4728,N,10343.4067,E,6.27,26.42,031115,,,D*50
$GPRMC,061625.000,A,0120.4744,N,10343.4074,E,7.62,25.66,031115,,,D*5C
$GPRMC,061626.000,A,0120.4758,N,10343.4083,E,5.89,34.15,031115,,,D*59
$GPRMC,061627.000,A,0120.4772,N,10343.4092,E,5.95,29.76,031115,,,D*54
$GPRMC,061628.000,A,0120.4791,N,10343.4098,E,8.41,10.89,031115,,,D*52
$GPRMC,061629.000,A,0120.4821,N,10343.4101,E,11.81,5.37,031115,,,D*53
$GPRMC,061630.000,A,0120.4858,N,10343.4100,E,14.40,359.89,031115,,,D*53
$GPRMC,061631.000,A,0120.4900,N,10343.4095,E,16.29,352.97,031115,,,D*5A
$GPRMC,061632.000,A,0120.4945,N,10343.4086,E,16.68,349.88,031115,,,D*5B
$GPRMC,061633.000,A,0120.4990,N,10343.4076,E,16.22,347.68,031115,,,D*53
$GPRMC,061634.000,A,0120.5032,N,10343.4067,E,17.35,350.01,031115,,,D*5A
$GPRMC,061635.000,A,0120.5075,N,10343.4062,E,15.86,355.77,031115,,,D*53
$GPRMC,061636.000,A,0120.5116,N,10343.4058,E,14.10,353.66,031115,,,D*55
$GPRMC,061637.000,A,0120.5143,N,10343.4052,E,9.37,344.47,031115,,,D*62
$GPRMC,061638.000,A,0120.5164,N,10343.4047,E,7.39,345.91,031115,,,D*66
$GPRMC,061639.000,A,0120.5176,N,10343.4043,E,5.05,344.82,031115,,,D*6E
$GPRMC,061640.000,A,0120.5186,N,10343.4044,E,4.39,0.65,031115,,,D*6C
$GPRMC,061641.000,A,0120.5188,N,10343.4050,E,3.16,31.62,031115,,,D*59
$GPRMC,061642.000,A,0120.5180,N,10343.4059,E,3.10,75.39,031115,,,D*53
$GPRMC,061643.000,A,0120.5170,N,10343.4067,E,3.30,97.55,031115,,,D*54
$GPRMC,061644.000,A,0120.5155,N,10343.4069,E,2.54,97.55,031115,,,D*59
$GPRMC,061645.000,A,0120.5141,N,10343.4070,E,2.08,97.55,031115,,,D*5C
$GPRMC,061646.000,A,0120.5121,N,10343.4067,E,2.12,97.55,031115,,,D*54
$GPRMC,061647.000,A,0120.5111,N,10343.4069,E,2.79,97.55,031115,,,D*55
$GPRMC,061648.000,A,0120.5102,N,10343.4076,E,3.66,119.21,031115,,,D*6D
$GPRMC,061649.000,A,0120.5092,N,10343.4086,E,4.52,122.15,031115,,,D*64
$GPRMC,061650.000,A,0120.5078,N,10343.4093,E,6.35,158.43,031115,,,D*61
$GPRMC,061651.000,A,0120.5043,N,10343.4093,E,13.67,181.24,031115,,,D*5E
$GPRMC,061652.000,A,0120.4999,N,10343.4094,E,16.03,176.45,031115,,,D*5D
$GPRMC,061653.000,A,0120.4948,N,10343.4097,E,17.70,177.21,031115,,,D*55
$GPRMC,061654.000,A,0120.4897,N,10343.4095,E,17.16,183.79,031115,,,D*55
$GPRMC,061655.000,A,0120.4849,N,10343.4084,E,17.69,194.74,031115,,,D*54
$GPRMC,061656.000,A,0120.4802,N,10343.4070,E,17.27,195.70,031115,,,D*5C
$GPRMC,061657.000,A,0120.4758,N,10343.4058,E,14.54,198.22,031115,,,D*5A
$GPRMC,061658.000,A,0120.4734,N,10343.4052,E,5.64,187.71,031115,,,D*6E
$GPRMC,061659.000,A,0120.4723,N,10343.4052,E,0.16,187.71,031115,,,D*69
$GPRMC,061700.000,A,0120.4720,N,10343.4053,E,0.13,187.71,031115,,,D*63
$GPRMC,061701.000,A,0120.4716,N,10343.4054,E,0.15,187.71,031115,,,D*66
$GPRMC,061702.000,A,0120.4713,N,10343.4054,E,0.09,187.71,031115,,,D*6D
$GPRMC,061703.000,A,0120.4711,N,10343.4054,E,0.11,187.71,031115,,,D*67
$GPRMC,061704.000,A,0120.4709,N,10343.4052,E,0.11,187.71,031115,,,D*6F
$GPRMC,061705.000,A,0120.4707,N,10343.4049,E,0.12,187.71,031115,,,D*69
$GPRMC,061706.000,A,0120.4705,N,10343.4047,E,0.13,187.71,031115,,,D*67
$GPRMC,061707.000,A,0120.4702,N,10343.4045,E,0.13,187.71,031115,,,D*63
$GPRMC,061708.000,A,0120.4699,N,10343.4042,E,0.14,187.71,031115,,,D*6F
$GPRMC,061709.000,A,0120.4696,N,10343.4040,E,1.38,187.71,031115,,,D*6C
$GPRMC,061710.000,A,0120.4694,N,10343.4037,E,1.39,187.71,031115,,,D*67
$GPRMC,061711.000,A,0120.4691,N,10343.4034,E,1.14,187.71,031115,,,D*6F
$GPRMC,061712.000,A,0120.4689,N,10343.4031,E,0.53,187.71,031115,,,D*62
$GPRMC,061713.000,A,0120.4689,N,10343.4030,E,0.15,187.71,031115,,,D*60
$GPRMC,061714.000,A,0120.4688,N,10343.4030,E,0.07,187.71,031115,,,D*65
$GPRMC,061715.000,A,0120.4688,N,10343.4030,E,0.19,187.71,031115,,,D*6B
$GPRMC,061716.000,A,0120.4689,N,10343.4030,E,0.23,187.71,031115,,,D*60
$GPRMC,061717.000,A,0120.4690,N,10343.4030,E,0.30,187.71,031115,,,D*6B
$GPRMC,061718.000,A,0120.4690,N,10343.4030,E,0.78,187.71,031115,,,D*68
$GPRMC,061719.000,A,0120.4693,N,10343.4030,E,0.79,187.71,031115,,,D*6B
$GPRMC,061720.000,A,0120.4695,N,10343.4030,E,0.40,187.71,031115,,,D*6D
$GPRMC,061721.000,A,0120.4696,N,10343.4030,E,0.48,187.71,031115,,,D*67
$GPRMC,061722.000,A,0120.4697,N,10343.4029,E,0.46,187.71,031115,,,D*63
$GPRMC,061723.000,A,0120.4698,N,10343.4029,E,0.64,187.71,031115,,,D*6D
$GPRMC,061724.000,A,0120.4696,N,10343.4028,E,0.73,187.71,031115,,,D*63
$GPRMC,061725.000,A,0120.4694,N,10343.4027,E,0.76,187.71,031115,,,D*6A
$GPRMC,061726.000,A,0120.4692,N,10343.4027,E,0.91,187.71,031115,,,D*66
$GPRMC,061727.000,A,0120.4690,N,10343.4027,E,1.61,187.71,031115,,,D*6B
$GPRMC,061728.000,A,0120.4685,N,10343.4029,E,0.00,187.71,031115,,,D*68
$GPRMC,061729.000,A,0120.4685,N,10343.4029,E,0.00,187.71,031115,,,D*69
$GPRMC,061730.000,A,0120.4683,N,10343.4031,E,0.14,187.71,031115,,,D*6B
$GPRMC,061731.000,A,0120.4679,N,10343.4031,E,0.00,187.71,031115,,,D*6A
$GPRMC,061732.000,A,0120.4679,N,10343.4031,E,0.00,187.71,031115,,,D*69
$GPRMC,061733.000,A,0120.4679,N,10343.4031,E,0.00,187.71,031115,,,D*68
$GPRMC,061734.000,A,0120.4679,N,10343.4031,E,0.00,187.71,031115,,,D*6F
$GPRMC,061735.000,A,0120.4679,N,10343.4031,E,0.01,187.71,031115,,,D*6F
$GPRMC,061736.000,A,0120.4679,N,10343.4030,E,0.01,187.71,031115,,,D*6D
$GPRMC,061737.000,A,0120.4679,N,10343.4030,E,0.02,187.71,031115,,,D*6F
$GPRMC,061738.000,A,0120.4680,N,10343.4030,E,0.03,187.71,031115,,,D*67
$GPRMC,061739.000,A,0120.4681,N,10343.4029,E,0.04,187.71,031115,,,D*68
$GPRMC,061740.000,A,0120.4682,N,10343.4029,E,0.06,187.71,031115,,,D*67
$GPRMC,061741.000,A,0120.4684,N,10343.4030,E,0.00,187.71,031115,,,D*6E
$GPRMC,061742.000,A,0120.4684,N,10343.4030,E,0.00,187.71,031115,,,D*6D
$GPRMC,061743.000,A,0120.4684,N,10343.4030,E,0.00,187.71,031115,,,D*6C
$GPRMC,061744.000,A,0120.4683,N,10343.4030,E,0.00,187.71,031115,,,D*6C
$GPRMC,061745.000,A,0120.4682,N,10343.4030,E,0.08,187.71,031115,,,D*64
$GPRMC,061746.000,A,0120.4680,N,10343.4031,E,0.79,187.71,031115,,,D*62
$GPRMC,061747.000,A,0120.4679,N,10343.4032,E,0.70,187.71,031115,,,D*6F
$GPRMC,061748.000,A,0120.4677,N,10343.4033,E,0.59,187.71,031115,,,D*64
$GPRMC,061749.000,A,0120.4676,N,10343.4034,E,0.48,187.71,031115,,,D*63
$GPRMC,061750.000,A,0120.4675,N,10343.4035,E,0.42,187.71,031115,,,D*63
$GPRMC,061751.000,A,0120.4675,N,10343.4036,E,0.00,187.71,031115,,,D*67
$GPRMC,061752.000,A,0120.4675,N,10343.4036,E,0.00,187.71,031115,,,D*64
$GPRMC,061753.000,A,0120.4675,N,10343.4036,E,0.00,187.71,031115,,,D*65
$GPRMC,061754.000,A,0120.4675,N,10343.4037,E,0.00,187.71,031115,,,D*63
$GPRMC,061755.000,A,0120.4676,N,10343.4037,E,0.45,187.71,031115,,,D*60
$GPRMC,061756.000,A,0120.4677,N,10343.4037,E,0.47,187.71,031115,,,D*60
$GPRMC,061757.000,A,0120.4679,N,10343.4036,E,0.54,187.71,031115,,,D*6C
$GPRMC,061758.000,A,0120.4680,N,10343.4035,E,0.00,187.71,031115,,,D*67
$GPRMC,061759.000,A,0120.4680,N,10343.4035,E,0.00,187.71,031115,,,D*66
$GPRMC,061800.000,A,0120.4680,N,10343.4035,E,0.00,187.71,031115,,,D*65
$GPRMC,061801.000,A,0120.4681,N,10343.4035,E,0.00,187.71,031115,,,D*65
$GPRMC,061802.000,A,0120.4681,N,10343.4035,E,0.00,187.71,031115,,,D*66
$GPRMC,061803.000,A,0120.4681,N,10343.4035,E,0.00,187.71,031115,,,D*67
$GPRMC,061804.000,A,0120.4681,N,10343.4035,E,0.00,187.71,031115,,,D*60
$GPRMC,061805.000,A,0120.4681,N,10343.4035,E,0.00,187.71,031115,,,D*61
$GPRMC,061806.000,A,0120.4681,N,10343.4035,E,0.96,187.71,031115,,,D*6D
$GPRMC,061807.000,A,0120.4684,N,10343.4035,E,0.86,187.71,031115,,,D*68
$GPRMC,061808.000,A,0120.4686,N,10343.4035,E,0.66,187.71,031115,,,D*6B
$GPRMC,061809.000,A,0120.4688,N,10343.4034,E,0.49,187.71,031115,,,D*68
$GPRMC,061810.000,A,0120.4689,N,10343.4033,E,0.54,187.71,031115,,,D*6A
$GPRMC,061811.000,A,0120.4690,N,10343.4032,E,0.61,187.71,031115,,,D*64
$GPRMC,061812.000,A,0120.4691,N,10343.4031,E,0.55,187.71,031115,,,D*62
$GPRMC,061813.000,A,0120.4692,N,10343.4029,E,0.54,187.71,031115,,,D*68
$GPRMC,061814.000,A,0120.4692,N,10343.4028,E,0.52,187.71,031115,,,D*68
$GPRMC,061815.000,A,0120.4692,N,10343.4027,E,0.45,187.71,031115,,,D*60
$GPRMC,061816.000,A,0120.4692,N,10343.4025,E,0.36,187.71,031115,,,D*65
$GPRMC,061817.000,A,0120.4692,N,10343.4024,E,0.31,187.71,031115,,,D*62
$GPRMC,061818.000,A,0120.4692,N,10343.4024,E,0.40,187.71,031115,,,D*6B
$GPRMC,061819.000,A,0120.4692,N,10343.4023,E,0.67,187.71,031115,,,D*68
$GPRMC,061820.000,A,0120.4692,N,10343.4021,E,0.55,187.71,031115,,,D*61
$GPRMC,061821.000,A,0120.4692,N,10343.4019,E,0.32,187.71,031115,,,D*6A
$GPRMC,061822.000,A,0120.4692,N,10343.4018,E,0.12,187.71,031115,,,D*6A
$GPRMC,061823.000,A,0120.4692,N,10343.4018,E,0.07,187.71,031115,,,D*6F
$GPRMC,061824.000,A,0120.4692,N,10343.4018,E,0.06,187.71,031115,,,D*69
$GPRMC,061825.000,A,0120.4692,N,10343.4018,E,0.13,187.71,031115,,,D*6C
$GPRMC,061826.000,A,0120.4692,N,10343.4018,E,0.26,187.71,031115,,,D*69
$GPRMC,061827.000,A,0120.4691,N,10343.4017,E,0.39,187.71,031115,,,D*6A
$GPRMC,061828.000,A,0120.4691,N,10343.4016,E,0.70,187.71,031115,,,D*69
$GPRMC,061829.000,A,0120.4692,N,10343.4014,E,0.94,187.71,031115,,,D*63
$GPRMC,061830.000,A,0120.4693,N,10343.4012,E,0.90,187.71,031115,,,D*68
$GPRMC,061831.000,A,0120.4694,N,10343.4010,E,0.75,187.71,031115,,,D*67
$GPRMC,061832.000,A,0120.4695,N,10343.4008,E,0.73,187.71,031115,,,D*6A
$GPRMC,061833.000,A,0120.4694,N,10343.4006,E,0.81,187.71,031115,,,D*69
$GPRMC,061834.000,A,0120.4693,N,10343.4004,E,0.93,187.71,031115,,,D*68
$GPRMC,061835.000,A,0120.4691,N,10343.4002,E,0.92,187.71,031115,,,D*6C
$GPRMC,061836.000,A,0120.4690,N,10343.4000,E,0.76,187.71,031115,,,D*66
$GPRMC,061837.000,A,0120.4690,N,10343.3998,E,0.73,187.71,031115,,,D*6D
$GPRMC,061838.000,A,0120.4689,N,10343.3996,E,0.75,187.71,031115,,,D*62
$GPRMC,061839.000,A,0120.4688,N,10343.3994,E,0.82,187.71,031115,,,D*68
$GPRMC,061840.000,A,0120.4687,N,10343.3992,E,0.83,187.71,031115,,,D*6E
$GPRMC,061841.000,A,0120.4686,N,10343.3990,E,0.80,187.71,031115,,,D*6F
$GPRMC,061842.000,A,0120.4686,N,10343.3988,E,0.75,187.71,031115,,,D*6F
$GPRMC,061843.000,A,0120.4685,N,10343.3986,E,0.78,187.71,031115,,,D*6E
$GPRMC,061844.000,A,0120.4684,N,10343.3984,E,0.75,187.71,031115,,,D*67
$GPRMC,061845.000,A,0120.4683,N,10343.3982,E,0.66,187.71,031115,,,D*65
$GPRMC,061846.000,A,0120.4683,N,10343.3980,E,0.68,187.71,031115,,,D*6A
$GPRMC,061847.000,A,0120.4682,N,10343.3978,E,0.80,187.71,031115,,,D*6B
$GPRMC,061848.000,A,0120.4681,N,10343.3976,E,0.79,187.71,031115,,,D*6F
$GPRMC,061849.000,A,0120.4680,N,10343.3975,E,0.67,237.18,031115,,,D*64
$GPRMC,061850.000,A,0120.4678,N,10343.3974,E,0.55,236.23,031115,,,D*62
$GPRMC,061851.000,A,0120.4677,N,10343.3974,E,0.30,234.55,031115,,,D*6C
$GPRMC,061852.000,A,0120.4676,N,10343.3973,E,0.37,234.55,031115,,,D*6E
$GPRMC,061853.000,A,0120.4676,N,10343.3972,E,0.42,234.55,031115,,,D*6C
$GPRMC,061854.000,A,0120.4675,N,10343.3971,E,0.45,234.55,031115,,,D*6C
$GPRMC,061855.000,A,0120.4675,N,10343.3970,E,0.53,234.55,031115,,,D*6B
$GPRMC,061856.000,A,0120.4676,N,10343.3969,E,0.52,234.55,031115,,,D*62
$GPRMC,061857.000,A,0120.4677,N,10343.3967,E,0.57,234.55,031115,,,D*69
$GPRMC,061858.000,A,0120.4677,N,10343.3966,E,0.83,234.55,031115,,,D*6E
$GPRMC,061859.000,A,0120.4677,N,10343.3964,E,1.00,234.55,031115,,,D*67
$GPRMC,061900.000,A,0120.4677,N,10343.3961,E,0.98,234.55,031115,,,D*6F
$GPRMC,061901.000,A,0120.4676,N,10343.3958,E,0.84,234.55,031115,,,D*68
$GPRMC,061902.000,A,0120.4676,N,10343.3956,E,0.76,234.55,031115,,,D*68
$GPRMC,061903.000,A,0120.4676,N,10343.3954,E,0.58,234.55,031115,,,D*67
$GPRMC,061904.000,A,0120.4676,N,10343.3952,E,0.37,234.55,031115,,,D*6F
$GPRMC,061905.000,A,0120.4677,N,10343.3951,E,0.34,234.55,031115,,,D*6F
$GPRMC,061906.000,A,0120.4677,N,10343.3950,E,0.41,234.55,031115,,,D*6F
$GPRMC,061907.000,A,0120.4677,N,10343.3949,E,0.61,234.55,031115,,,D*64
$GPRMC,061908.000,A,0120.4676,N,10343.3948,E,0.66,234.55,031115,,,D*6C
$GPRMC,061909.000,A,0120.4676,N,10343.3946,E,0.64,234.55,031115,,,D*61
$GPRMC,061910.000,A,0120.4676,N,10343.3944,E,0.53,234.55,031115,,,D*6F
$GPRMC,061911.000,A,0120.4676,N,10343.3943,E,0.48,234.55,031115,,,D*63
$GPRMC,061912.000,A,0120.4677,N,10343.3941,E,0.32,234.55,031115,,,D*6E
$GPRMC,061913.000,A,0120.4677,N,10343.3941,E,0.20,234.55,031115,,,D*6C
$GPRMC,061914.000,A,0120.4677,N,10343.3940,E,0.18,234.55,031115,,,D*61
$GPRMC,061915.000,A,0120.4677,N,10343.3940,E,0.06,234.55,031115,,,D*6F
$GPRMC,061916.000,A,0120.4677,N,10343.3940,E,0.09,234.55,031115,,,D*63
$GPRMC,061917.000,A,0120.4676,N,10343.3940,E,0.11,234.55,031115,,,D*6A
$GPRMC,061918.000,A,0120.4676,N,10343.3940,E,0.06,234.55,031115,,,D*63
$GPRMC,061919.000,A,0120.4676,N,10343.3940,E,0.10,234.55,031115,,,D*65
$GPRMC,061920.000,A,0120.4676,N,10343.3940,E,0.05,234.55,031115,,,D*6B
$GPRMC,061921.000,A,0120.4676,N,10343.3940,E,0.11,234.55,031115,,,D*6F
$GPRMC,061922.000,A,0120.4676,N,10343.3941,E,0.09,234.55,031115,,,D*64
$GPRMC,061923.000,A,0120.4676,N,10343.3941,E,0.10,234.55,031115,,,D*6D
$GPRMC,061924.000,A,0120.4677,N,10343.3941,E,0.20,234.55,031115,,,D*68
$GPRMC,061925.000,A,0120.4677,N,10343.3942,E,0.29,234.55,031115,,,D*63
$GPRMC,061926.000,A,0120.4677,N,10343.3941,E,0.66,234.55,031115,,,D*68
$GPRMC,061927.000,A,0120.4678,N,10343.3940,E,1.28,234.55,031115,,,D*6C
$GPRMC,061928.000,A,0120.4677,N,10343.3936,E,1.14,234.55,031115,,,D*62
$GPRMC,061929.000,A,0120.4677,N,10343.3933,E,1.23,234.55,031115,,,D*62
$GPRMC,061930.000,A,0120.4677,N,10343.3930,E,1.44,234.55,031115,,,D*68
$GPRMC,061931.000,A,0120.4679,N,10343.3926,E,1.40,234.55,031115,,,D*64
$GPRMC,061932.000,A,0120.4681,N,10343.3923,E,1.02,234.55,031115,,,D*63
$GPRMC,061933.000,A,0120.4683,N,10343.3921,E,0.82,234.55,031115,,,D*6B
$GPRMC,061934.000,A,0120.4685,N,10343.3921,E,0.00,234.55,031115,,,D*60
$GPRMC,061935.000,A,0120.4685,N,10343.3921,E,0.00,234.55,031115,,,D*61
$GPRMC,061936.000,A,0120.4685,N,10343.3921,E,0.02,234.55,031115,,,D*60
$GPRMC,061937.000,A,0120.4684,N,10343.3921,E,0.04,234.55,031115,,,D*66
$GPRMC,061938.000,A,0120.4684,N,10343.3922,E,0.04,234.55,031115,,,D*6A
$GPRMC,061939.000,A,0120.4683,N,10343.3923,E,0.05,234.55,031115,,,D*6C
$GPRMC,061940.000,A,0120.4681,N,10343.3923,E,0.05,234.55,031115,,,D*60
$GPRMC,061941.000,A,0120.4680,N,10343.3923,E,0.06,234.55,031115,,,D*63
$GPRMC,061942.000,A,0120.4678,N,10343.3922,E,0.05,234.55,031115,,,D*65
$GPRMC,061943.000,A,0120.4677,N,10343.3922,E,0.05,234.55,031115,,,D*6B
$GPRMC,061944.000,A,0120.4676,N,10343.3922,E,0.03,234.55,031115,,,D*6B
$GPRMC,061945.000,A,0120.4675,N,10343.3923,E,0.00,234.55,031115,,,D*6B
$GPRMC,061946.000,A,0120.4675,N,10343.3923,E,0.00,234.55,031115,,,D*68
$GPRMC,061947.000,A,0120.4675,N,10343.3923,E,0.00,234.55,031115,,,D*69
$GPRMC,061948.000,A,0120.4675,N,10343.3923,E,0.01,234.55,031115,,,D*67
$GPRMC,061949.000,A,0120.4675,N,10343.3923,E,0.00,234.55,031115,,,D*67
$GPRMC,061950.000,A,0120.4675,N,10343.3923,E,0.00,234.55,031115,,,D*6F
$GPRMC,061951.000,A,0120.4675,N,10343.3923,E,0.00,234.55,031115,,,D*6E
$GPRMC,061952.000,A,0120.4675,N,10343.3923,E,0.01,234.55,031115,,,D*6C
$GPRMC,061953.000,A,0120.4675,N,10343.3923,E,0.01,234.55,031115,,,D*6D
$GPRMC,061954.000,A,0120.4676,N,10343.3924,E,0.02,234.55,031115,,,D*6D
$GPRMC,061955.000,A,0120.4676,N,10343.3924,E,0.02,234.55,031115,,,D*6C
$GPRMC,061956.000,A,0120.4676,N,10343.3925,E,0.02,234.55,031115,,,D*6E
$GPRMC,061957.000,A,0120.4675,N,10343.3925,E,0.02,234.55,031115,,,D*6C
$GPRMC,061958.000,A,0120.4675,N,10343.3925,E,0.17,234.55,031115,,,D*67
$GPRMC,061959.000,A,0120.4675,N,10343.3924,E,0.15,234.55,031115,,,D*65
$GPRMC,062000.000,A,0120.4675,N,10343.3924,E,0.11,234.55,031115,,,D*67
$GPRMC,062001.000,A,0120.4675,N,10343.3924,E,0.02,234.55,031115,,,D*64
$GPRMC,062002.000,A,0120.4675,N,10343.3924,E,0.14,234.55,031115,,,D*60
$GPRMC,062003.000,A,0120.4674,N,10343.3924,E,0.10,234.55,031115,,,D*64
$GPRMC,062004.000,A,0120.4674,N,10343.3924,E,0.22,234.55,031115,,,D*62
$GPRMC,062005.000,A,0120.4674,N,10343.3925,E,0.30,234.55,031115,,,D*61
$GPRMC,062006.000,A,0120.4673,N,10343.3925,E,0.22,234.55,031115,,,D*66
$GPRMC,062007.000,A,0120.4672,N,10343.3925,E,0.22,234.55,031115,,,D*66
$GPRMC,062008.000,A,0120.4672,N,10343.3926,E,0.22,234.55,031115,,,D*6A
$GPRMC,062009.000,A,0120.4671,N,10343.3926,E,0.20,234.55,031115,,,D*6A
$GPRMC,062010.000,A,0120.4671,N,10343.3926,E,0.19,234.55,031115,,,D*68
$GPRMC,062011.000,A,0120.4671,N,10343.3927,E,0.25,234.55,031115,,,D*67
$GPRMC,062012.000,A,0120.4670,N,10343.3927,E,0.26,234.55,031115,,,D*66
$GPRMC,062013.000,A,0120.4669,N,10343.3927,E,0.15,234.55,031115,,,D*6F
$GPRMC,062014.000,A,0120.4669,N,10343.3926,E,0.11,234.55,031115,,,D*6D
$GPRMC,062015.000,A,0120.4669,N,10343.3926,E,0.34,234.55,031115,,,D*6B
$GPRMC,062016.000,A,0120.4670,N,10343.3926,E,0.49,234.55,031115,,,D*6A
$GPRMC,062017.000,A,0120.4671,N,10343.3927,E,0.26,234.55,031115,,,D*62
